     3.03           OBSERVATION DATA    M: Mixed            RINEX VERSION / TYPE
RTKCONV 2.4.3 b29                       20171222 135701 UTC PGM / RUN BY / DATE 
log: G:\RTKDATA\1219test\20171219r.log                      COMMENT             
format: u-blox                                              COMMENT             
                                                            MARKER NAME         
                                                            MARKER NUMBER       
                                                            MARKER TYPE         
                                                            OBSERVER / AGENCY   
                                                            REC # / TYPE / VERS 
                                                            ANT # / TYPE        
 -2163705.0781  4382737.5829  4084042.6900                  APPROX POSITION XYZ 
        0.0000        0.0000        0.0000                  ANTENNA: DELTA H/E/N
G    4 C1C L1C D1C S1C                                      SYS / # / OBS TYPES 
C    4 C1I L1I D1I S1I                                      SYS / # / OBS TYPES 
  2017    12    19     9    15   58.0002584     GPS         TIME OF FIRST OBS   
  2017    12    19     9    26   37.9992584     GPS         TIME OF LAST OBS    
G                                                           SYS / PHASE SHIFT   
C                                                           SYS / PHASE SHIFT   
  0                                                         GLONASS SLOT / FRQ #
 C1C    0.000 C1P    0.000 C2C    0.000 C2P    0.000        GLONASS COD/PHS/BIS 
                                                            END OF HEADER       
> 2017 12 19  9 15 58.0002584  0 23                     
G29  23981468.352   126023423.312        2946.863          39.000  
G10  23069404.941   121230554.545       -3158.782          40.000  
G12  23647061.523   124266162.018       -2949.942          39.000  
G14  20531258.652   107892483.018        1303.370          44.000  
G25  21134984.472   111065066.177       -1178.174          44.000  
G31  20661643.957   108577661.654        1389.644          47.000  
G32  20471163.644   107576675.688        -143.416          48.000  
C20                                     -2760.585          39.000  
G 3  24536131.952   128938249.193        3362.306          38.000  
C 9  35929127.473   187092408.010         483.081          42.000  
C 6  36403334.269   189561723.423         -71.060          42.000  
C 7  36270681.911   188870959.579         771.758          42.000  
C 3  37520220.623   195377633.755         456.047          38.000  
G26  23344650.079   122677036.142        4038.115          38.000  
C 1  37905762.462   197385249.804         472.886          37.000  
C10  37486875.552   195204008.950        1138.666          38.000  
C 2  38399703.055   199957329.6592        396.408          36.000  
C 5  40039596.743   208496686.7092        391.345          32.000  
G 1  25503210.184   134020298.001       -1370.155          34.000  
G22  23411450.490   123027996.490        2383.882          40.000  
G 4  21896584.584   115067401.550        3769.766          43.000  
C 4  39079976.463   203499693.784         449.335          35.000  
C19  23617893.083   122984562.095        -393.792          45.000  
> 2017 12 19  9 15 59.0002584  0 23                     
G29  23980907.738   126020476.591        2946.259          39.000  
G10  23070006.058   121233713.608       -3159.111          40.000  
G12  23647623.115   124269112.345       -2950.312          39.000  
G14  20531010.710   107891179.839        1303.130          44.000  
G25  21135208.821   111066244.853       -1179.012          44.000  
G31  20661379.525   108576272.239        1389.114          47.000  
G32  20471190.814   107576819.265        -143.795          48.000  
C20                                     -2760.677          41.000  
G 3  24535492.401   128934887.059        3362.078          38.000  
C 9  35929034.612   187091924.964         483.008          44.000  
C 6  36403347.854   189561794.568         -71.348          43.000  
C 7  36270533.462   188870188.187         771.292          43.000  
C 3  37520133.014   195377177.845         456.058          39.000  
G26  23343881.737   122672998.293        4037.600          38.000  
C 1  37905671.730   197384777.055         473.134          39.000  
C10  37486657.162   195202870.539        1138.627          40.000  
C 2  38399626.772   199956933.4312        396.377          37.000  
C 5  40039521.471   208496294.9292        391.045          33.000  
G 1  25503471.152   134021668.557       -1370.589          34.000  
G22  23410997.133   123025612.918        2383.670          40.000  
G 4  21895867.354   115063632.051        3769.252          43.000  
C 4  39079890.346   203499245.055         448.959          36.000  
C19  23617968.599   122984956.201        -394.406          46.000  
> 2017 12 19  9 16  0.0002584  0 23                     
G29  23980346.844   126017530.109        2946.704          39.000  
G10  23070607.174   121236872.871       -3158.983          40.000  
G12  23648184.637   124272062.976       -2950.436          39.000  
G14  20530762.996   107889877.035        1302.896          44.000  
G25  21135433.143   111067424.157       -1179.500          44.000  
G31  20661115.023   108574883.175        1389.194          47.000  
G32  20471217.958   107576963.304        -144.066          48.000  
C20                                     -2760.876          39.000  
G 3  24534852.947   128931525.297        3362.201          38.000  
C 9  35928941.785   187091442.034         482.825          42.000  
C 6  36403361.815   189561865.815         -70.809          41.000  
C 7  36270385.205   188869416.902         771.525          41.000  
C 3  37520045.763   195376721.928         456.235          38.000  
G26  23343113.282   122668960.633        4037.897          38.000  
C 1  37905580.823   197384304.356         472.484          36.000  
C10  37486438.459   195201732.239        1138.802          37.000  
C 2  38399550.532   199956536.2283        396.580          36.000  
C 5  40039446.139   208495903.1203        391.895          32.000  
G 1  25503732.295   134023039.512       -1370.885          34.000  
G22  23410543.549   123023229.880        2383.242          40.000  
G 4  21895150.124   115059862.950        3769.019          43.000  
C 4  39079804.037   203498796.349         448.434          35.000  
C19  23618044.150   122985350.856        -394.638          44.000  
> 2017 12 19  9 16  1.0002584  0 23                     
G29  23979785.951   126014583.806        2946.319          38.000  
G10  23071208.430   121240032.243       -3159.599          40.000  
G12  23648746.045   124275013.808       -2950.656          39.000  
G14  20530514.836   107888574.486        1302.336          44.000  
G25  21135657.518   111068603.976       -1180.104          44.000  
G31  20660850.783   108573494.393        1388.598          47.000  
G32  20471245.591   107577107.713        -144.542          48.000  
C20                                     -2760.967          39.000  
G 3  24534213.422   128928163.832        3361.234          38.000  
C 9  35928849.133   187090959.103         482.831          42.000  
C 6  36403375.408   189561937.134         -71.434          41.000  
C 7  36270237.131   188868645.622         771.184          41.000  
C 3  37519958.503   195376265.937         455.969          37.000  
G26  23342344.809   122664923.143        4037.276          38.000  
C 1  37905490.186   197383831.523         472.858          36.000  
C10  37486219.956   195200593.960        1138.206          38.000  
C 2  38399474.475   199956139.8982        396.385          36.000  
C 5  40039370.928   208495511.2133        391.749          31.000  
G 1  25503993.341   134024410.697       -1371.336          34.000  
G22  23410089.835   123020847.204        2382.714          40.000  
G 4  21894432.912   115056094.123        3768.709          43.000  
C 4  39079717.886   203498347.526         448.303          35.000  
C19  23618120.189   122985745.975        -395.374          44.000  
> 2017 12 19  9 16  2.0002584  0 23                     
G29  23979225.144   126011637.598        2946.259          38.000  
G10  23071810.026   121243191.639       -3160.064          40.000  
G12  23649307.227   124277964.798       -2951.319          39.000  
G14  20530267.209   107887272.149        1302.019          44.000  
G25  21135882.321   111069784.268       -1180.967          44.000  
G31  20660586.578   108572105.803        1388.200          47.000  
G32  20471273.214   107577252.439        -145.235          48.000  
C20                                     -2761.262          39.000  
G 3  24533574.107   128924802.562        3361.058          38.000  
C 9  35928756.481   187090476.140         483.069          42.000  
C 6  36403388.862   189562008.420         -71.565          41.000  
C 7  36270088.743   188867874.266         771.281          41.000  
C 3  37519870.799   195375809.783         456.018          37.000  
G26  23341576.467   122660885.698        4037.167          38.000  
C 1  37905399.454   197383358.561         472.757          37.000  
C10  37486001.418   195199455.628        1137.968          38.000  
C 2  38399398.409   199955743.4832        395.739          36.000  
C 5  40039295.779   208495120.1822        392.188          31.000  
G 1  25504254.196   134025782.110       -1371.943          34.000  
G22  23409636.758   123018464.895        2381.938          40.000  
G 4  21893715.629   115052325.548        3768.026          43.000  
C 4  39079631.655   203497898.557         448.616          35.000  
C19  23618196.167   122986141.479        -395.974          44.000  
> 2017 12 19  9 16  3.0002584  0 23                     
G29  23978664.408   126008691.694        2945.410          39.000  
G10  23072411.108   121246351.211       -3159.841          40.000  
G12  23649868.827   124280916.092       -2952.199          39.000  
G14  20530019.494   107885970.161        1301.658          44.000  
G25  21136106.975   111070965.171       -1181.672          44.000  
G31  20660322.495   108570717.583        1387.630          47.000  
G32  20471301.108   107577397.628        -145.829          48.000  
C20                                     -2761.864          39.000  
G 3  24532934.801   128921441.643        3360.477          38.000  
C 9  35928663.716   187089993.311         482.452          42.000  
C 6  36403402.709   189562079.836         -71.637          41.000  
C 7  36269941.010   188867103.037         770.912          41.000  
C 3  37519783.425   195375353.640         455.839          37.000  
G26  23340808.108   122656848.471        4037.223          38.000  
C 1  37905308.556   197382885.612         472.792          37.000  
C10  37485782.618   195198317.397        1137.643          38.000  
C 2  38399322.248   199955347.0252        395.950          36.000  
C 5  40039220.507   208494728.1683        392.009          31.000  
G 1  25504515.181   134027153.869       -1372.453          33.000  
G22  23409183.549   123016083.079        2381.293          40.000  
G 4  21892998.556   115048557.366        3767.609          43.000  
C 4  39079545.303   203497447.0883        448.958          35.000  
C19  23618272.329   122986537.547        -396.745          44.000  
> 2017 12 19  9 16  4.0002584  0 23                     
G29  23978104.072   126005746.095        2945.227          39.000  
G10  23073012.416   121249511.060       -3159.890          40.000  
G12  23650430.497   124283867.711       -2951.413          39.000  
G14  20529772.042   107884668.610        1301.451          44.000  
G25  21136331.821   111072146.770       -1182.031          44.000  
G31  20660058.281   108569329.779        1387.627          47.000  
G32  20471328.593   107577543.348        -145.924          48.000  
G 3  24532295.495   128918081.166        3360.190          38.000  
C 9  35928570.820   187089510.643         482.739          42.000  
C 6  36403416.050   189562151.462         -71.688          41.000  
C 7  36269792.901   188866331.977         770.742          41.000  
C 3  37519695.686   195374897.579         455.846          37.000  
G26  23340040.272   122652811.571        4036.836          39.000  
C 1  37905217.771   197382412.718         473.156          37.000  
C10  37485563.897   195197179.328        1137.828          38.000  
C 2  38399246.130   199954950.6562        396.209          36.000  
C 5  40039145.123   208494335.2322        392.086          31.000  
G 1  25504776.350   134028526.077       -1372.268          33.000  
G22  23408730.227   123013701.832        2380.828          40.000  
C20                                     -2761.604          39.000  
G 4  21892281.753   115044789.645        3767.585          43.000  
C 4  39079459.125   203496998.1982        448.516          35.000  
C19  23618348.403   122986934.218        -397.024          44.000  
> 2017 12 19  9 16  5.0002584  0 23                     
G29  23977543.318   126002800.765        2945.105          39.000  
G10  23073613.925   121252671.147       -3160.442          40.000  
G12  23650992.612   124286819.689       -2952.248          39.000  
G14  20529524.449   107883367.457        1301.001          44.000  
G25  21136556.876   111073328.995       -1182.510          44.000  
G31  20659794.312   108567942.366        1387.040          47.000  
G32  20471356.487   107577689.558        -146.708          48.000  
G 3  24531656.145   128914721.061        3359.957          38.000  
C 9  35928478.028   187089028.112         482.275          42.000  
C 6  36403429.766   189562223.229         -71.893          41.000  
C 7  36269645.002   188865561.015         770.776          41.000  
C 3  37519608.051   195374441.537         456.022          37.000  
G26  23339272.236   122648774.876        4036.502          39.000  
C 1  37905126.759   197381939.882         472.750          36.000  
C10  37485345.464   195196041.385        1137.987          38.000  
C 2  38399170.161   199954554.2782        396.329          36.000  
C 5  40039069.711   208493942.2993        391.781          32.000  
G 1  25505037.737   134029898.664       -1372.777          33.000  
G22  23408277.342   123011321.073        2380.644          40.000  
C20                                     -2761.589          39.000  
G 4  21891564.890   115041022.336        3767.151          43.000  
C 4  39079372.877   203496549.2982        448.714          35.000  
C19  23618424.704   122987331.462        -397.596          44.000  
> 2017 12 19  9 16  6.0002584  0 23                     
G29  23976982.809   125999855.820        2944.965          38.000  
G10  23074215.303   121255831.496       -3159.970          40.000  
G12  23651554.466   124289772.056       -2952.153          39.000  
G14  20529276.770   107882066.759        1300.911          44.000  
G25  21136781.766   111074511.963       -1183.120          44.000  
G31  20659530.273   108566555.409        1387.160          47.000  
G32  20471384.355   107577836.334        -146.598          48.000  
G 3  24531016.664   128911361.447        3359.707          38.000  
C 9  35928385.568   187088545.780         482.880          42.000  
C 6  36403443.848   189562295.263         -71.954          41.000  
C 7  36269497.233   188864790.293         770.779          41.000  
C 3  37519520.442   195373985.624         455.913          37.000  
G26  23338504.103   122644738.529        4036.753          39.000  
C 1  37905035.896   197381467.149         473.078          36.000  
C10  37485126.909   195194903.682        1137.811          38.000  
C 2  38399094.034   199954157.546         396.901          36.000  
C 5  40038994.292   208493549.4603        392.468          31.000  
G 1  25505298.940   134031271.707       -1372.868          33.000  
G22  23407824.404   123008940.938        2380.027          40.000  
C20                                     -2761.914          39.000  
G 4  21890848.157   115037255.532        3766.932          43.000  
C 4  39079286.621   203496100.5572        449.287          35.000  
C19  23618501.197   122987729.365        -397.813          44.000  
> 2017 12 19  9 16  7.0002584  0 23                     
G29  23976422.692   125996911.114        2944.562          39.000  
G10  23074816.533   121258992.064       -3161.140          40.000  
G12  23652116.633   124292724.699       -2952.906          39.000  
G14  20529029.011   107880766.401        1299.960          44.000  
G25  21137006.961   111075695.530       -1184.327          44.000  
G31  20659266.356   108565168.800        1386.190          47.000  
G32  20471412.223   107577983.568        -147.782          48.000  
G 3  24530377.437   128908002.172        3358.660          38.000  
C 9  35928293.047   187088063.574         481.726          42.000  
C 6  36403457.599   189562367.389         -72.648          41.000  
C 7  36269349.124   188864019.639         770.235          41.000  
C 3  37519433.034   195373529.670         455.513          37.000  
G26  23337736.102   122640702.397        4035.725          39.000  
C 1  37904945.286   197380994.406         472.100          37.000  
C10  37484908.380   195193765.984        1137.797          38.000  
C 2  38399017.969   199953761.305         395.725          36.000  
C 5  40038918.976   208493157.6303        391.595          31.000  
G 1  25505560.301   134032645.141       -1374.573          32.000  
G22  23407371.615   123006561.271        2379.086          40.000  
C20                                     -2762.589          39.000  
G 4  21890131.424   115033489.080        3766.229          43.000  
C 4  39079200.391   203495651.7912        448.872          35.000  
C19  23618577.716   122988127.792        -398.978          44.000  
> 2017 12 19  9 16  8.0002584  0 23                     
G29  23975862.383   125993966.690        2944.147          38.000  
G10  23075417.798   121262152.807       -3160.928          40.000  
G12  23652678.399   124295677.648       -2953.311          39.000  
G14  20528781.785   107879466.441        1299.626          44.000  
G25  21137232.313   111076879.722       -1184.616          44.000  
G31  20659002.709   108563782.575        1385.739          47.000  
G32  20471440.370   107578131.283        -148.152          48.000  
G 3  24529738.262   128904643.265        3358.708          38.000  
C 9  35928200.535   187087581.480         481.659          42.000  
C 6  36403471.655   189562439.670         -72.692          41.000  
C 7  36269201.024   188863249.099         770.451          41.000  
C 3  37519345.285   195373073.775         455.364          37.000  
G26  23336968.231   122636666.516        4035.345          39.000  
C 1  37904854.614   197380521.679         472.084          37.000  
C10  37484689.868   195192628.462        1137.340          38.000  
C 2  38398942.016   199953365.076         396.323          36.000  
C 5  40038843.722   208492765.8902        390.367          31.000  
G 1  25505821.853   134034018.867       -1374.120          32.000  
G22  23406919.034   123004182.127        2378.689          40.000  
C20                                     -2762.592          39.000  
G 4  21889415.058   115029723.071        3765.727          43.000  
C 4  39079114.405   203495203.0792        448.679          35.000  
C19  23618654.506   122988526.799        -399.600          44.000  
> 2017 12 19  9 16  9.0002584  0 23                     
G29  23975302.204   125991022.701        2943.915          38.000  
G10  23076019.429   121265313.936       -3161.156          40.000  
G12  23653240.576   124298631.078       -2953.275          39.000  
G14  20528534.437   107878167.008        1299.471          44.000  
G25  21137457.831   111078064.716       -1185.235          44.000  
G31  20658739.001   108562396.879        1385.547          47.000  
G32  20471468.700   107578279.638        -148.553          48.000  
G 3  24529098.999   128901284.922        3358.235          38.000  
C 9  35928107.944   187087099.673         481.757          42.000  
C 6  36403485.572   189562512.244         -72.810          41.000  
C 7  36269052.994   188862478.863         770.128          41.000  
C 3  37519257.764   195372618.010         456.021          37.000  
G26  23336200.422   122632630.999        4035.382          38.000  
C 1  37904763.725   197380049.126         472.386          37.000  
C10  37484471.505   195191491.209        1137.566          38.000  
C 2  38398865.715   199952969.018         396.199          36.000  
C 5  40038768.468   208492374.2303        391.436          32.000  
G 1  25506083.327   134035393.170       -1374.111          32.000  
G22  23406466.498   123001803.642        2378.486          40.000  
C20                                     -2762.761          39.000  
G 4  21888698.500   115025957.613        3765.458          43.000  
C 4  39079028.288   203494754.5342        448.570          35.000  
C19  23618731.357   122988926.502        -399.723          44.000  
> 2017 12 19  9 16 10.0002584  0 23                     
G29  23974741.983   125988078.961        2943.219          39.000  
G10  23076620.920   121268475.241       -3161.561          40.000  
G12  23653802.420   124301584.796       -2953.872          39.000  
G14  20528287.377   107876867.945        1298.554          44.000  
G25  21137683.331   111079250.313       -1186.152          44.000  
G31  20658475.494   108561011.533        1384.938          47.000  
G32  20471497.170   107578428.449        -149.142          48.000  
G 3  24528459.859   128897926.920        3357.556          38.000  
C 9  35928015.248   187086617.958         481.519          42.000  
C 6  36403499.305   189562584.943         -72.804          41.000  
C 7  36268905.357   188861708.708         769.793          41.000  
C 3  37519170.452   195372162.269         455.695          37.000  
G26  23335432.246   122628595.710        4034.677          38.000  
C 1  37904673.150   197379576.579         472.148          37.000  
C10  37484253.334   195190354.072        1137.164          38.000  
C 2  38398789.571   199952572.995         395.359          36.000  
C 5  40038693.310   208491982.5912        391.759          32.000  
G 1  25506345.020   134036767.851       -1375.059          32.000  
G22  23406014.101   122999425.650        2377.590          40.000  
C20                                     -2763.126          39.000  
G 4  21887982.028   115022192.546        3764.755          43.000  
C 4  39078942.276   203494306.9563        447.998          35.000  
C19  23618807.937   122989326.770        -400.724          45.000  
> 2017 12 19  9 16 11.0002584  0 23                     
G29  23974181.839   125985135.410        2943.414          39.000  
G10  23077222.604   121271636.669       -3161.505          40.000  
G12  23654364.640   124304538.762       -2954.244          39.000  
G14  20528040.430   107875569.159        1298.658          44.000  
G25  21137908.858   111080436.464       -1186.417          44.000  
G31  20658211.734   108559626.488        1384.783          47.000  
G32  20471525.579   107578577.660        -149.451          48.000  
C20                                     -2763.283          39.000  
G 3  24527820.884   128894569.225        3357.388          37.000  
C 9  35927922.649   187086136.318         481.543          42.000  
C 6  36403513.745   189562657.755         -73.010          41.000  
C 7  36268757.510   188860938.563         770.095          41.000  
C 3  37519082.729   195371706.487         455.525          37.000  
G26  23334664.523   122624560.574        4034.927          38.000  
C 1  37904582.251   197379103.973         472.636          37.000  
C10  37484035.040   195189216.957        1136.970          38.000  
C 2  38398713.523   199952176.875         396.498          36.000  
C 5  40038618.135   208491590.9173        392.163          32.000  
G 1  25506606.659   134038142.776       -1374.993          32.000  
G22  23405561.521   122997048.106        2376.828          40.000  
G 4  21887265.872   115018427.807        3764.494          43.000  
C 4  39078856.342   203493858.3592        448.379          35.000  
C19  23618884.962   122989727.511        -401.095          45.000  
> 2017 12 19  9 16 12.0002584  0 23                     
G29  23973621.783   125982192.126        2942.938          39.000  
G10  23077824.366   121274798.303       -3162.250          40.000  
G12  23654926.398   124307492.985       -2954.290          39.000  
G14  20527792.916   107874270.724        1298.168          44.000  
G25  21138134.681   111081623.220       -1187.298          44.000  
G31  20657948.559   108558241.788        1384.379          47.000  
G32  20471553.692   107578727.331        -150.144          48.000  
C20                                     -2763.662          39.000  
G 3  24527181.246   128891211.865        3356.935          37.000  
C 9  35927830.285   187085654.760         481.458          42.000  
C 6  36403527.670   189562730.651         -72.926          41.000  
C 7  36268609.698   188860168.529         770.081          41.000  
C 3  37518995.155   195371250.683         455.655          37.000  
G26  23333896.801   122620525.656        4034.684          39.000  
C 1  37904491.589   197378631.361         472.882          37.000  
C10  37483816.642   195188079.945        1136.840          38.000  
C 2  38398637.650   199951780.797         395.684          36.000  
C 5  40038542.889   208491199.2133        391.721          31.000  
G 1  25506868.605   134039518.087       -1375.630          32.000  
G22  23405109.046   122994670.997        2376.719          40.000  
G 4  21886549.549   115014663.441        3764.111          43.000  
C 4  39078770.121   203493409.7232        448.640          35.000  
C19  23618961.918   122990128.795        -401.681          44.000  
> 2017 12 19  9 16 13.0002584  0 23                     
G29  23973061.989   125979249.208        2942.841          39.000  
G10  23078426.041   121277960.236       -3162.344          40.000  
G12  23655488.740   124310447.644       -2954.756          39.000  
G14  20527545.987   107872972.781        1297.604          44.000  
G25  21138360.923   111082810.722       -1187.977          44.000  
G31  20657684.816   108556857.563        1383.963          47.000  
G32  20471582.205   107578877.592        -150.663          48.000  
C20                                     -2763.822          39.000  
G 3  24526542.254   128887855.002        3356.313          37.000  
C 9  35927737.982   187085173.434         481.195          42.000  
C 6  36403541.683   189562803.803         -73.176          41.000  
C 7  36268461.824   188859398.723         769.582          41.000  
C 3  37518907.677   195370795.025         455.354          37.000  
G26  23333129.183   122616491.082        4034.413          39.000  
C 1  37904400.813   197378158.912         472.070          37.000  
C10  37483598.296   195186943.131        1136.658          38.000  
C 2  38398561.418   199951384.809         395.601          36.000  
C 5  40038467.705                         391.266          31.000  
G 1  25507130.140   134040893.871       -1376.031          32.000  
G22  23404656.867   122992294.528        2376.223          40.000  
G 4  21885833.165   115010899.594        3763.601          43.000  
C 4  39078683.890   203492961.2552        448.149          35.000  
C19  23619038.934   122990530.741        -402.286          45.000  
> 2017 12 19  9 16 14.0002584  0 23                     
G29  23972501.968   125976306.597        2942.334          39.000  
G10  23079027.654   121281122.397       -3162.330          40.000  
G12  23656051.169   124313402.639       -2955.287          39.000  
G14  20527299.040   107871675.227        1297.127          44.000  
G25  21138587.174   111083998.874       -1188.560          44.000  
G31  20657421.527   108555473.739        1383.567          47.000  
G32  20471611.059   107579028.345        -151.176          48.000  
C20                                     -2764.342          39.000  
G 3  24525903.218   128884498.533        3356.252          37.000  
C 9  35927645.609   187084692.255         481.104          42.000  
C 6  36403555.896   189562877.106         -73.091          41.000  
C 7  36268314.039   188858629.055         769.429          41.000  
C 3  37518820.147   195370339.368         455.511          37.000  
G26  23332361.574   122612456.778        4034.046          39.000  
C 1  37904310.019   197377686.490         472.083          37.000  
C10  37483379.976   195185806.462        1136.559          38.000  
C 2  38398485.388   199950988.852         395.833          36.000  
C 5  40038392.503                         391.279          32.000  
G 1  25507391.858   134042270.036       -1376.646          32.000  
G22  23404204.391   122989918.608        2375.399          40.000  
G 4  21885117.235   115007136.185        3762.976          43.000  
C 4  39078597.695   203492512.7922        448.590          35.000  
C19  23619116.134   122990933.275        -402.926          45.000  
> 2017 12 19  9 16 15.0002584  0 23                     
G29  23971942.130   125973364.253        2942.151          39.000  
G10  23079629.225   121284284.729       -3161.967          40.000  
G12  23656613.694   124316357.921       -2955.433          39.000  
G14  20527052.329   107870378.040        1297.163          44.000  
G25  21138813.373   111085187.640       -1188.930          44.000  
G31  20657158.204   108554090.267        1383.528          47.000  
G32  20471640.018   107579179.569        -151.287          48.000  
C20                                     -2764.056          39.000  
G 3  24525264.785   128881142.409        3356.693          37.000  
C 9  35927553.306   187084211.184         481.122          43.000  
C 6  36403569.786   189562950.562         -73.435          43.000  
C 7  36268166.192   188857859.487         769.632          42.000  
C 3  37518732.704   195369883.744         455.640          37.000  
G26  23331593.896   122608422.680        4034.194          39.000  
C 1  37904219.121   197377214.034         472.489          37.000  
C10  37483161.604   195184669.915        1136.372          38.000  
C 2  38398409.523   199950592.902         396.182          36.000  
C 5  40038316.988   208490022.6442        391.210          32.000  
G 1  25507653.786   134043646.581       -1376.784          32.000  
G22  23403752.483   122987543.149        2375.223          40.000  
G 4  21884400.886   115003373.155        3762.974          43.000  
C 4  39078511.570   203492064.3352        448.765          35.000  
C19  23619193.403   122991336.353        -403.333          45.000  
> 2017 12 19  9 16 16.0002584  0 23                     
G29  23971382.196   125970422.110        2941.815          39.000  
G10  23080231.222   121287447.260       -3163.232          40.000  
G12  23657176.149   124319313.443       -2955.967          39.000  
G14  20526805.618   107869081.169        1296.451          44.000  
G25  21139039.763   111086376.972       -1189.544          44.000  
G31  20656895.072   108552707.116        1382.785          47.000  
G32  20471668.776   107579331.209        -152.023          48.000  
C20                                     -2764.774          39.000  
G 3  24524626.159   128877786.644        3355.396          37.000  
C 9  35927460.942   187083730.172         480.872          42.000  
C 6  36403584.104   189563024.097         -73.630          42.000  
C 7  36268018.318   188857089.967         769.374          41.000  
C 3  37518644.895   195369428.050         455.646          37.000  
G26  23330826.042   122604388.771        4033.638          39.000  
C 1  37904128.363   197376741.573         472.363          36.000  
C10  37482943.625   195183533.442        1135.997          38.000  
C 2  38398333.527   199950196.925         396.196          35.000  
C 5  40038241.882   208489632.0583        392.051          32.000  
G 1  25507915.688   134045023.426       -1377.662          32.000  
G22  23403300.784   122985168.156        2374.964          40.000  
G 4  21883684.651   114999610.473        3762.449          43.000  
C 4  39078425.505   203491615.8523        448.287          36.000  
C19  23619270.856   122991739.929        -403.858          44.000  
> 2017 12 19  9 16 17.0002584  0 23                     
G29  23970822.245   125967480.490        2941.266          38.000  
G10  23080833.141   121290610.178       -3163.335          40.000  
G12  23657738.710   124322269.530       -2956.687          39.000  
G14  20526559.046   107867784.908        1295.780          44.000  
G25  21139266.031   111087567.191       -1190.830          44.000  
G31  20656631.853   108551324.571        1382.145          47.000  
G32  20471697.752   107579483.564        -152.792          48.000  
C20                                     -2765.312          39.000  
G 3  24523987.900   128874431.486        3354.769          37.000  
C 9  35927368.665   187083249.546         480.322          42.000  
C 6  36403598.535   189563098.020         -74.357          41.000  
C 7  36267870.533   188856320.790         768.999          41.000  
C 3  37518557.530   195368972.643         455.170          37.000  
G26  23330058.468   122600355.314        4033.181          39.000  
C 1  37904037.578   197376269.378         471.613          36.000  
C10  37482725.279   195182397.270        1135.686          38.000  
C 2  38398257.366   199949801.192         395.927          36.000  
C 5  40038166.567   208489240.7842        391.606          32.000  
G 1  25508177.868   134046400.871       -1377.920          32.000  
G22  23402848.632   122982793.929        2373.508          40.000  
G 4  21882968.816   114995848.434        3761.725          43.000  
C 4  39078339.432   203491167.6232        447.879          35.000  
C19  23619348.143   122992144.314        -404.904          44.000  
> 2017 12 19  9 16 18.0002584  0 23                     
G29  23970262.250   125964539.054        2940.808          38.000  
G10  23081434.912   121293773.205       -3163.040          40.000  
G12  23658301.287   124325225.809       -2956.669          39.000  
G14  20526312.571   107866488.916        1295.799          44.000  
G25  21139492.640   111088757.918       -1191.078          44.000  
G31  20656369.000   108549942.296        1381.998          47.000  
G32  20471726.841   107579636.308        -153.172          48.000  
C20                                     -2765.030          39.000  
G 3  24523349.475   128871076.604        3354.181          37.000  
C 9  35927276.502   187082768.927         480.542          42.000  
C 6  36403612.339   189563171.968         -73.955          41.000  
C 7  36267722.877   188855551.658         769.047          41.000  
C 3  37518470.009   195368517.153         455.313          37.000  
G26  23329291.235   122596322.012        4033.316          39.000  
C 1  37903946.854   197375797.095         471.946          37.000  
C10  37482507.047   195181261.118        1136.558          38.000  
C 2  38398181.431   199949405.411         395.612          36.000  
C 5  40038091.522   208488848.3783        391.449          32.000  
G 1  25508439.936   134047778.553       -1377.261          32.000  
G22  23402396.706   122980420.069        2373.776          40.000  
G 4  21882253.043   114992086.719        3761.365          43.000  
C 4  39078253.394   203490719.3212        448.208          35.000  
C19  23619426.233   122992549.144        -405.099          44.000  
> 2017 12 19  9 16 19.0002584  0 23                     
G29  23969702.386   125961597.930        2940.814          38.000  
G10  23082036.971   121296936.516       -3163.327          40.000  
G12  23658864.013   124328182.445       -2956.598          39.000  
G14  20526065.781   107865193.343        1295.488          44.000  
G25  21139719.414   111089949.353       -1191.778          44.000  
G31  20656105.790   108548560.427        1382.033          47.000  
G32  20471756.088   107579789.558        -153.160          48.000  
C20                                     -2764.922          39.000  
G 3  24522711.268   128867722.138        3354.403          38.000  
C 9  35927184.505   187082288.474         480.866          42.000  
C 6  36403626.901   189563246.118         -73.776          41.000  
C 7  36267575.127   188854782.665         768.862          41.000  
C 3  37518382.653   195368061.720         455.200          37.000  
G26  23328523.687   122592288.992        4033.460          39.000  
C 1  37903856.148   197375324.865         472.350          37.000  
C10  37482288.797   195180125.145        1136.066          38.000  
C 2  38398105.636   199949009.641         395.776          36.000  
C 5  40038016.373   208488457.1052        391.540          32.000  
G 1  25508701.925   134049156.709       -1377.914          32.000  
G22  23401945.269   122978046.795        2373.255          40.000  
G 4  21881537.113   114988325.431        3761.248          43.000  
C 4  39078167.128   203490271.0633        448.377          35.000  
C19  23619504.305   122992954.594        -405.629          44.000  
> 2017 12 19  9 16 20.0002584  0 23                     
G29  23969142.312   125958657.040        2941.064          38.000  
G10  23082639.335   121300100.017       -3163.508          40.000  
G12  23659426.599   124331139.379       -2957.019          39.000  
G14  20525819.306   107863898.151        1295.086          44.000  
G25  21139946.145   111091141.388       -1192.078          44.000  
G31  20655842.946   108547178.932        1381.526          47.000  
G32  20471785.212   107579943.294        -153.660          48.000  
C20                                     -2765.486          39.000  
G 3  24522072.913   128864368.049        3353.906          38.000  
C 9  35927092.132   187081808.147         480.371          42.000  
C 6  36403641.009   189563320.418         -74.247          42.000  
C 7  36267427.585   188854013.753         769.208          41.000  
C 3  37518295.122   195367606.296         455.337          38.000  
G26  23327756.226   122588256.221        4032.758          39.000  
C 1  37903765.581   197374852.624         472.519          37.000  
C10  37482070.521   195178989.284        1136.204          38.000  
C 2  38398029.614   199948613.890         396.342          36.000  
C 5  40037941.302   208488066.7653        391.754          32.000  
G 1  25508964.262   134050535.217       -1378.855          32.000  
G22  23401493.474   122975674.001        2372.785          40.000  
G 4  21880821.253   114984564.564        3760.719          43.000  
C 4  39078080.951   203489822.8492        447.844          35.000  
C19  23619582.090   122993360.587        -406.029          45.000  
> 2017 12 19  9 16 21.0002584  0 23                     
G29  23968582.797   125955716.337        2940.192          38.000  
G10  23083241.385   121303263.572       -3163.950          40.000  
G12  23659989.378   124334096.494       -2957.341          39.000  
G14  20525572.751   107862603.196        1294.313          44.000  
G25  21140173.294   111092333.929       -1193.356          44.000  
G31  20655580.146   108545797.679        1380.703          47.000  
G32  20471814.599   107580097.379        -154.672          48.000  
C20                                     -2765.737          39.000  
G 3  24521434.828   128861014.199        3353.323          38.000  
C 9  35926999.689   187081327.818         479.846          42.000  
C 6  36403655.039   189563394.715         -74.591          41.000  
C 7  36267279.834   188853244.864         768.538          41.000  
C 3  37518207.540   195367150.769         454.871          37.000  
G26  23326988.932   122584223.540        4032.030          39.000  
C 1  37903674.858   197374380.296         472.279          37.000  
C10  37481852.480   195177853.424        1135.396          38.000  
C 2  38397953.435   199948218.064         395.908          36.000  
C 5  40037866.100   208487675.3893        389.936          32.000  
G 1  25509226.653   134051913.956       -1379.575          32.000  
G22  23401042.098   122973301.624        2371.629          40.000  
G 4  21880105.480   114980803.967        3759.994          43.000  
C 4  39077994.563   203489374.5152        447.089          35.000  
C19  23619660.031   122993767.025        -406.985          45.000  
> 2017 12 19  9 16 22.0002584  0 23                     
G29  23968023.195   125952775.946        2940.784          38.000  
G10  23083843.304   121306427.393       -3163.351          40.000  
G12  23660552.234   124337053.982       -2957.593          39.000  
G14  20525326.389   107861308.680        1294.472          44.000  
G25  21140400.278   111093527.165       -1193.575          44.000  
G31  20655317.345   108544416.873        1380.615          47.000  
G32  20471844.046   107580252.019        -155.068          48.000  
C20                                     -2765.825          39.000  
G 3  24520796.944   128857660.805        3353.491          38.000  
C 9  35926907.552   187080847.676         480.005          42.000  
C 6  36403669.715   189563469.246         -74.844          41.000  
C 7  36267132.353   188852476.163         768.633          41.000  
C 3  37518120.114   195366695.298         455.718          37.000  
G26  23326221.811   122580191.149        4032.411          39.000  
C 1  37903584.273   197373908.091         472.201          37.000  
C10  37481634.571   195176717.739        1135.458          38.000  
C 2  38397877.492   199947822.344         395.789          36.000  
C 5  40037790.977   208487284.0103        391.167          31.000  
G 1  25509488.929   134053293.150       -1380.023          32.000  
G22  23400590.835   122970929.795        2371.520          40.000  
G 4  21879389.951   114977043.857        3759.629          43.000  
C 4  39077908.630   203488926.2312        448.177          35.000  
C19  23619738.382   122994174.097        -407.355          44.000  
> 2017 12 19  9 16 23.0002584  0 23                     
G29  23967463.540   125949835.826        2940.313          38.000  
G10  23084445.424   121309591.432       -3163.885          40.000  
G12  23661115.021   124340011.755       -2957.912          39.000  
G14  20525080.018   107860014.519        1294.036          44.000  
G25  21140627.314   111094720.995       -1194.045          44.000  
G31  20655054.606   108543036.403        1380.265          47.000  
G32  20471873.580   107580407.084        -155.115          48.000  
C20                                     -2766.172          39.000  
G 3  24520159.008   128854307.771        3353.441          38.000  
C 9  35926815.424   187080367.632         480.157          42.000  
C 6  36403683.710   189563543.858         -74.467          41.000  
C 7  36266984.733   188851707.525         768.823          41.000  
C 3  37518032.689   195366239.836         455.821          37.000  
G26  23325454.420   122576158.989        4032.029          39.000  
C 1  37903493.637   197373435.832         472.415          37.000  
C10  37481416.513   195175582.116        1135.891          38.000  
C 2  38397801.366   199947426.598         395.338          36.000  
C 5  40037715.889   208486892.6792        391.293          32.000  
G 1  25509751.433   134054672.674       -1379.571          32.000  
G22  23400139.677   122968558.437        2371.221          40.000  
G 4  21878674.501   114973284.100        3759.661          43.000  
C 4  39077822.583   203488477.9692        448.060          35.000  
C19  23619816.673   122994581.684        -407.833          45.000  
> 2017 12 19  9 16 24.0002584  0 23                     
G29  23966903.990   125946895.869        2939.789          38.000  
G10  23085047.535   121312755.524       -3164.265          40.000  
G12  23661678.018   124342969.701       -2958.226          39.000  
G14  20524833.866   107858720.599        1293.748          44.000  
G25  21140854.708   111095915.336       -1194.637          44.000  
G31  20654791.893   108541656.186        1379.898          47.000  
G32  20471903.228   107580562.519        -155.802          48.000  
C20                                     -2766.251          39.000  
G 3  24519521.360   128850954.997        3352.268          38.000  
C 9  35926723.042   187079887.582         480.182          42.000  
C 6  36403698.229   189563618.506         -74.756          41.000  
C 7  36266837.043   188850938.892         768.351          41.000  
C 3  37517945.193   195365784.308         455.304          37.000  
G26  23324687.030   122572126.938        4031.618          39.000  
C 1  37903402.957   197372963.510         471.772          37.000  
C10  37481198.429   195174446.489        1135.661          38.000  
C 2  38397725.501   199947032.2173        395.892          36.000  
C 5  40037640.626   208486501.2312        391.446          32.000  
G 1  25510013.745   134056052.445       -1380.243          32.000  
G22  23399688.493   122966187.476        2370.493          40.000  
G 4  21877958.972   114969524.634        3759.139          43.000  
C 4  39077736.387   203488029.6172        447.986          35.000  
C19  23619895.033   122994989.718        -408.346          45.000  
> 2017 12 19  9 16 25.0002584  0 23                     
G29  23966344.693   125943956.433        2939.227          38.000  
G10  23085649.628   121315920.091       -3164.988          40.000  
G12  23662241.101   124345928.213       -2958.909          39.000  
G14  20524587.722   107857427.329        1292.633          44.000  
G25  21141082.311   111097110.570       -1195.801          44.000  
G31  20654529.433   108540276.587        1379.158          47.000  
G32  20471932.885   107580718.685        -156.811          48.000  
C20                                     -2766.980          37.000  
G 3  24518883.528   128847602.837        3351.488          38.000  
C 9  35926630.774   187079407.912         479.456          40.000  
C 6  36403712.721   189563693.558         -75.239          39.000  
C 7  36266689.685   188850170.609         768.116          39.000  
C 3  37517857.619   195365329.010         454.703          35.000  
G26  23323920.005   122568095.361        4031.478          39.000  
C 1  37903312.390   197372491.413         471.803          36.000  
C10  37480980.284   195173311.255        1134.956          36.000  
C 2  38397649.418   199946636.6192        395.275          33.000  
C 5  40037565.511   208486110.0353        391.039          28.000  
G 1  25510276.475   134057432.828       -1381.178          32.000  
G22  23399237.440   122963817.267        2369.662          40.000  
G 4  21877243.749   114965765.827        3758.289          43.000  
C 4  39077650.122   203487578.4743        447.700          32.000  
C19  23619973.664   122995398.567        -409.409          42.000  
> 2017 12 19  9 16 26.0002584  0 23                     
G29  23965785.283   125941017.297        2938.904          38.000  
G10  23086251.730   121319084.857       -3165.053          40.000  
G12  23662803.923   124348887.060       -2959.153          39.000  
G14  20524341.778   107856134.421        1292.895          44.000  
G25  21141309.993   111098306.423       -1196.108          44.000  
G31  20654266.973   108538897.377        1379.130          47.000  
G32  20471962.803   107580875.329        -156.826          48.000  
C20                                     -2766.706          39.000  
G 3  24518245.949   128844251.055        3351.552          39.000  
C 9  35926538.751   187078928.372         479.565          42.000  
C 6  36403726.925   189563768.753         -74.976          41.000  
C 7  36266541.908   188849402.473         768.128          41.000  
C 3  37517770.464   195364873.726         455.370          37.000  
G26  23323152.772   122564064.047        4030.964          39.000  
C 1  37903221.832   197372019.357         472.383          36.000  
C10  37480761.973   195172176.139        1134.878          38.000  
C 2  38397573.344   199946241.0432        395.450          36.000  
C 5  40037490.231   208485718.8612        391.468          32.000  
G 1  25510539.127   134058813.579       -1380.852          33.000  
G22  23398786.430   122961447.593        2369.479          40.000  
G 4  21876528.735   114962007.435        3758.255          43.000  
C 4  39077564.127   203487130.3732        448.451          34.000  
C19  23620052.155   122995807.969        -409.535          44.000  
> 2017 12 19  9 16 27.0002584  0 23                     
G29  23965226.117   125938078.311        2938.861          38.000  
G10  23086853.850   121322249.710       -3165.068          40.000  
G12  23663366.850   124351846.108       -2959.199          39.000  
G14  20524096.009   107854841.800        1292.479          44.000  
G25  21141537.849   111099502.825       -1196.728          44.000  
G31  20654004.679   108537518.442        1378.802          47.000  
G32  20471992.713   107581032.361        -157.289          48.000  
C20                                     -2766.807          39.000  
G 3  24517608.493   128840899.569        3350.985          39.000  
C 9  35926446.849   187078448.857         479.529          42.000  
C 6  36403741.767   189563844.008         -74.928          41.000  
C 7  36266394.401   188848634.342         768.081          41.000  
C 3  37517683.021   195364418.384         455.286          37.000  
G26  23322385.616   122560032.841        4031.070          39.000  
C 1  37903130.978   197371547.197         472.469          37.000  
C10  37480544.159   195171041.011        1135.081          38.000  
C 2  38397497.383   199945845.3922        395.574          36.000  
C 5  40037415.230   208485327.6273        391.544          32.000  
G 1  25510802.137   134060194.622       -1380.923          33.000  
G22  23398335.970   122959078.311        2369.184          40.000  
G 4  21875813.800   114958249.353        3757.890          43.000  
C 4  39077478.220   203486682.2122        448.510          35.000  
C19  23620131.135   122996217.842        -410.034          45.000  
> 2017 12 19  9 16 28.0002584  0 23                     
G29  23964667.413   125935139.518        2938.818          38.000  
G10  23087456.136   121325414.679       -3164.998          40.000  
G12  23663929.986   124354805.366       -2959.478          39.000  
G14  20523850.223   107853549.462        1292.208          44.000  
G25  21141765.461   111100699.751       -1197.449          44.000  
G31  20653742.533   108536139.782        1378.468          47.000  
G32  20472022.588   107581189.770        -157.740          48.000  
C20                                     -2767.231          39.000  
G 3  24516970.810   128837548.365        3350.794          39.000  
C 9  35926354.939   187077969.370         479.218          42.000  
C 6  36403755.919   189563919.331         -75.457          41.000  
C 7  36266246.746   188847866.225         767.876          41.000  
C 3  37517595.604   195363965.4683        455.300          37.000  
G26  23321618.627   122556001.811        4030.940          39.000  
C 1  37903040.560   197371078.0323        471.896          37.000  
C10  37480326.084   195169905.934        1134.741          38.000  
C 2  38397421.370   199945449.6642        395.621          36.000  
C 5  40037340.107   208484936.3303        391.340          32.000  
G 1  25511065.042   134061575.927       -1381.037          34.000  
G22  23397885.205   122956709.464        2368.514          40.000  
G 4  21875098.559   114954491.575        3757.643          43.000  
C 4  39077392.208   203486235.0233        447.704          35.000  
C19  23620210.001   122996628.199        -410.773          45.000  
> 2017 12 19  9 16 29.0002584  0 23                     
G29  23964108.230   125932201.126        2938.330          38.000  
G10  23088058.596   121328579.992       -3165.610          40.000  
G12  23664493.192   124357765.063       -2959.882          39.000  
G14  20523604.123   107852257.613        1291.915          44.000  
G25  21141993.422   111101897.409       -1197.817          44.000  
G31  20653480.151   108534761.603        1378.132          47.000  
G32  20472052.576   107581347.782        -158.143          48.000  
C20                                     -2767.100          39.000  
G 3  24516333.283   128834197.621        3351.075          38.000  
C 9  35926262.967   187077490.123         479.065          42.000  
C 6  36403770.333   189563994.887         -75.676          41.000  
C 7  36266099.292   188847098.305         768.077          41.000  
C 3  37517508.222   195363510.1652        455.471          37.000  
G26  23320851.577   122551971.121        4030.515          39.000  
C 1  37902949.853   197370605.9542        472.393          37.000  
C10  37480108.034   195168771.056        1134.981          38.000  
C 2  38397345.391   199945054.0392        395.831          36.000  
C 5  40037265.184   208484546.1242        391.699          32.000  
G 1  25511328.400   134062957.734       -1382.284          34.000  
G22  23397434.824   122954341.226        2368.027          40.000  
G 4  21874383.850   114950734.331        3757.238          43.000  
C 4  39077306.187   203485787.8793        448.363          35.000  
C19  23620288.867   122997039.212        -411.348          45.000  
> 2017 12 19  9 16 30.0002584  0 23                     
G29  23963548.968   125929263.081        2937.659          38.000  
G10  23088661.030   121331745.548       -3165.967          40.000  
G12  23665056.615   124360725.125       -2960.310          39.000  
G14  20523358.476   107850966.210        1291.130          44.000  
G25  21142221.618   111103095.785       -1198.908          44.000  
G31  20653217.726   108533383.868        1377.495          47.000  
G32  20472082.599   107581506.349        -159.036          48.000  
C20                                     -2767.714          39.000  
G 3  24515695.618   128830847.363        3349.626          39.000  
C 9  35926170.891   187077011.057         478.790          42.000  
C 6  36403785.087   189564070.648         -75.658          42.000  
C 7  36265951.820   188846330.629         767.135          41.000  
C 3  37517420.666   195363054.9642        455.030          37.000  
G26  23320084.701   122547940.737        4030.052          39.000  
C 1  37902859.243   197370133.9802        471.726          38.000  
C10  37479890.055   195167636.381        1134.513          38.000  
C 2  38397269.422   199944658.026         395.387          36.000  
C 5  40037190.061   208484155.0483        391.142          32.000  
G 1  25511591.428   134064339.974       -1383.175          34.000  
G22  23396984.643   122951973.579        2367.125          40.000  
G 4  21873669.098   114946977.567        3756.438          43.000  
C 4  39077220.000   203485339.8712        447.679          37.000  
C19  23620367.995   122997450.853        -412.118          44.000  
> 2017 12 19  9 16 31.0002584  0 23                     
G29  23962989.750   125926325.369        2937.305          38.000  
G10  23089263.498   121334911.361       -3165.942          40.000  
G12  23665620.004   124363685.545       -2960.419          39.000  
G14  20523112.838   107849675.235        1290.831          44.000  
G25  21142449.954   111104294.835       -1199.239          44.000  
G31  20652955.772   108532006.561        1377.222          47.000  
G32  20472112.980   107581665.425        -159.192          48.000  
C20                                     -2767.804          40.000  
G 3  24515058.414   128827497.536        3349.661          39.000  
C 9  35926078.789   187076532.202         478.760          42.000  
C 6  36403799.693   189564146.616         -75.735          42.000  
C 7  36265804.453   188845563.085         767.392          42.000  
C 3  37517333.371   195362599.8252        455.380          38.000  
G26  23319317.711   122543910.655        4029.997          39.000  
C 1  37902768.327   197369662.0702        472.161          38.000  
C10  37479672.355   195166501.887        1134.666          39.000  
C 2  38397193.505   199944262.594         395.908          36.000  
C 5  40037114.886   208483763.0543        390.532          32.000  
G 1  25511854.612   134065722.619       -1382.788          35.000  
G22  23396534.104   122949606.459        2367.279          40.000  
G 4  21872954.233   114943221.259        3756.175          43.000  
C 4  39077133.997   203484891.9402        448.126          35.000  
C19  23620447.071   122997863.105        -412.440          45.000  
> 2017 12 19  9 16 32.0002584  0 23                     
G29  23962430.784   125923387.872        2937.787          38.000  
G10  23089865.810   121338077.384       -3165.807          40.000  
G12  23666183.516   124366646.249       -2960.527          39.000  
G14  20522867.374   107848384.620        1290.735          44.000  
G25  21142678.212   111105494.498       -1199.715          44.000  
G31  20652693.557   108530629.598        1376.990          47.000  
G32  20472143.273   107581824.982        -159.515          48.000  
C20                                     -2767.903          39.000  
G 3  24514421.185   128824148.060        3349.778          39.000  
C 9  35925986.948   187076053.428         479.108          42.000  
C 6  36403814.403   189564222.727         -75.789          41.000  
C 7  36265657.103   188844795.659         767.528          41.000  
C 3  37517245.885   195362144.7192        455.307          38.000  
G26  23318550.861   122539880.768        4030.202          39.000  
C 1  37902677.822   197369190.1682        472.346          37.000  
C10  37479454.498   195165367.503        1134.766          38.000  
C 2  38397117.553   199943867.156         395.822          36.000  
C 5  40037039.824   208483371.9772        391.824          32.000  
G 1  25512117.883   134067105.629       -1382.938          34.000  
G22  23396083.714   122947239.866        2366.734          40.000  
G 4  21872239.707   114939465.327        3756.270          43.000  
C 4  39077048.055   203484443.9942        448.462          35.000  
C19  23620526.234   122998275.912        -412.860          44.000  
> 2017 12 19  9 16 33.0002584  0 23                     
G29  23961871.723   125920450.639        2937.195          38.000  
G10  23090468.244   121341243.543       -3166.342          40.000  
G12  23666747.044   124369607.211       -2961.006          39.000  
G14  20522621.963   107847094.336        1289.895          44.000  
G25  21142906.688   111106694.747       -1200.637          44.000  
G31  20652431.751   108529252.968        1376.346          47.000  
G32  20472173.872   107581984.972        -160.409          48.000  
C20                                     -2768.375          39.000  
G 3  24513783.746   128820798.911        3349.086          39.000  
C 9  35925894.864   187075574.735         478.497          42.000  
C 6  36403828.678   189564298.931         -76.333          41.000  
C 7  36265509.701   188844028.264         767.269          41.000  
C 3  37517158.389   195361689.5662        454.646          37.000  
G26  23317784.038   122535851.110        4029.132          39.000  
C 1  37902587.264   197368718.2472        471.783          37.000  
C10  37479236.797   195164233.173        1134.258          38.000  
C 2  38397041.740   199943471.691         395.344          36.000  
C 5  40036964.683   208482980.9633        390.638          31.000  
G 1  25512381.242   134068488.933       -1383.134          34.000  
G22  23395633.516   122944873.725        2365.928          40.000  
G 4  21871525.025   114935709.791        3755.082          43.000  
C 4  39076962.235   203483996.0572        447.258          35.000  
C19  23620605.571   122998689.224        -413.669          45.000  
> 2017 12 19  9 16 34.0002584  0 23                     
G29  23961312.993   125917513.731        2936.658          39.000  
G10  23091070.556   121344409.957       -3166.350          40.000  
G12  23667310.573   124372568.537       -2961.390          39.000  
G14  20522376.526   107845804.463        1289.919          44.000  
G25  21143135.155   111107895.676       -1201.363          44.000  
G31  20652169.902   108527876.750        1376.166          47.000  
G32  20472204.384   107582145.472        -160.664          48.000  
C20                                     -2768.710          39.000  
G 3  24513146.647   128817450.205        3348.612          39.000  
C 9  35925802.831   187075096.213         478.467          42.000  
C 6  36403843.406   189564375.310         -76.429          41.000  
C 7  36265362.387   188843261.039         767.302          41.000  
C 3  37517070.990   195361233.948         455.306          37.000  
G26  23317017.170   122531821.702        4029.297          39.000  
C 1  37902496.689   197368246.378         472.160          37.000  
C10  37479019.027   195163099.003        1134.058          38.000  
C 2  38396965.805   199943076.291         395.474          36.000  
C 5  40036889.848   208482590.9783        390.468          32.000  
G 1  25512644.784   134069872.705       -1383.725          34.000  
G22  23395183.048   122942508.126        2365.517          40.000  
G 4  21870810.403   114931954.687        3754.893          43.000  
C 4  39076876.266   203483548.1212        447.991          35.000  
C19  23620685.170   122999103.149        -414.229          45.000  
> 2017 12 19  9 16 35.0002584  0 23                     
G29  23960754.246   125914577.125        2936.292          39.000  
G10  23091673.356   121347576.614       -3166.781          40.000  
G12  23667874.136   124375530.209       -2961.786          39.000  
G14  20522131.141   107844515.014        1289.049          44.000  
G25  21143363.648   111109097.340       -1202.214          44.000  
G31  20651908.157   108526500.952        1375.396          47.000  
G32  20472235.062   107582306.506        -161.625          48.000  
C20                                     -2768.895          39.000  
G 3  24512509.487   128814101.894        3348.121          39.000  
C 9  35925711.008   187074617.853         478.101          42.000  
C 6  36403858.177   189564451.877         -76.605          41.000  
C 7  36265215.211   188842493.978         766.826          41.000  
C 3  37516983.712   195360778.950         454.191          37.000  
G26  23316250.513   122527792.581        4028.875          39.000  
C 1  37902406.096   197367774.581         471.562          37.000  
C10  37478801.336   195161964.972        1133.591          38.000  
C 2  38396889.853   199942680.924         395.293          36.000  
C 5  40036814.995   208482202.0362        391.039          32.000  
G 1  25512908.029   134071256.856       -1385.007          34.000  
G22  23394732.849   122940143.097        2364.454          40.000  
G 4  21870095.939   114928200.034        3754.103          43.000  
C 4  39076790.202   203483100.2442        447.922          35.000  
C19  23620764.848   122999517.671        -414.979          45.000  
> 2017 12 19  9 16 36.0002584  0 23                     
G29  23960195.717   125911640.841        2936.121          39.000  
G10  23092276.296   121350743.522       -3167.269          40.000  
G12  23668437.770   124378492.233       -2962.148          38.000  
G14  20521885.826   107843225.976        1288.693          44.000  
G25  21143592.568   111110299.594       -1202.523          44.000  
G31  20651646.631   108525125.551        1375.273          47.000  
G32  20472265.521   107582468.053        -161.880          48.000  
C20                                     -2769.297          39.000  
G 3  24511872.310   128810754.024        3347.638          38.000  
C 9  35925619.019   187074139.675         478.168          42.000  
C 6  36403872.696   189564528.630         -76.759          41.000  
C 7  36265067.949   188841727.050         766.916          41.000  
C 3  37516896.365   195360323.958         454.714          37.000  
G26  23315483.776   122523763.757        4028.491          39.000  
C 1  37902315.625   197367302.837         471.707          37.000  
C10  37478583.636   195160831.113        1133.469          38.000  
C 2  38396813.893   199942285.627         395.291          36.000  
C 5  40036739.697   208481809.2153        389.930          31.000  
G 1  25513171.711   134072641.415       -1384.724          35.000  
G22  23394282.660   122937778.588        2364.302          40.000  
G 4  21869381.396   114924445.832        3753.970          43.000  
C 4  39076704.172   203482651.963         447.980          35.000  
C19  23620844.447   122999932.785        -415.290          45.000  
> 2017 12 19  9 16 37.0002584  0 23                     
G29  23959637.030   125908704.841        2936.121          39.000  
G10  23092879.175   121353910.599       -3166.830          40.000  
G12  23669001.429   124381454.573       -2962.094          38.000  
G14  20521640.493   107841937.316        1288.481          44.000  
G25  21143821.445   111111502.508       -1203.082          44.000  
G31  20651385.113   108523750.547        1374.896          47.000  
G32  20472296.408   107582630.088        -162.170          48.000  
C20                                     -2769.362          39.000  
G 3  24511235.150   128807406.528        3347.490          38.000  
C 9  35925527.292   187073661.620         478.180          42.000  
C 6  36403887.433   189564605.559         -77.167          41.000  
C 7  36264920.626   188840960.266         766.759          41.000  
C 3  37516808.905   195359868.985         455.236          37.000  
G26  23314717.153   122519735.158        4028.467          39.000  
C 1  37902224.727   197366831.104         471.858          37.000  
C10  37478365.752   195159697.345        1133.720          38.000  
C 2  38396738.132   199941890.400         394.978          36.000  
C 5  40036664.592   208481418.3093        391.100          32.000  
G 1  25513435.383   134074026.346       -1384.985          34.000  
G22  23393832.689   122935414.622        2363.767          40.000  
G 4  21868666.854   114920692.038        3753.608          43.000  
C 4  39076618.125   203482204.219         447.636          35.000  
C19  23620924.360   123000348.486        -415.925          45.000  
> 2017 12 19  9 16 38.0002584  0 23                     
G29  23959078.370   125905769.153        2935.797          38.000  
G10  23093481.792   121357077.968       -3167.303          40.000  
G12  23669565.167   124384417.243       -2962.466          39.000  
G14  20521395.291   107840649.063        1288.203          44.000  
G25  21144050.602   111112706.063       -1203.778          44.000  
G31  20651123.526   108522375.935        1374.624          47.000  
G32  20472327.452   107582792.628        -162.639          48.000  
C20                                     -2769.518          39.000  
G 3  24510598.243   128804059.457        3346.993          39.000  
C 9  35925435.609   187073183.704         477.881          42.000  
C 6  36403902.309   189564682.646         -77.189          41.000  
C 7  36264773.389   188840193.619         766.856          41.000  
C 3  37516721.453   195359414.096         454.659          37.000  
G26  23313950.600   122515706.848        4027.856          39.000  
C 1  37902134.344   197366359.453         471.984          37.000  
C10  37478148.078   195158563.738        1133.637          38.000  
C 2  38396662.093   199941495.183         395.372          36.000  
C 5  40036589.381   208481026.5582        390.272          32.000  
G 1  25513699.300   134075411.708       -1385.609          35.000  
G22  23393382.935   122933051.193        2363.132          40.000  
G 4  21867952.564   114916938.696        3753.163          43.000  
C 4  39076531.982   203481756.476         447.802          35.000  
C19  23621004.396   123000764.771        -416.516          45.000  
> 2017 12 19  9 16 39.0002584  0 23                     
G29  23958519.588   125902833.587        2935.565          38.000  
G10  23094084.584   121360245.368       -3167.669          40.000  
G12  23670128.853   124387380.050       -2962.948          39.000  
G14  20521150.055   107839361.040        1287.656          44.000  
G25  21144279.627   111113910.099       -1204.357          44.000  
G31  20650861.886   108521001.544        1374.069          47.000  
G32  20472358.365   107582955.488        -163.081          48.000  
C20                                     -2769.845          39.000  
G 3  24509961.502   128800712.601        3346.550          39.000  
C 9  35925343.908   187072705.771         477.948          42.000  
C 6  36403917.046   189564759.716         -77.266          41.000  
C 7  36264626.179   188839426.939         766.597          41.000  
C 3  37516634.254   195358959.069         454.924          37.000  
G26  23313184.099   122511678.585        4028.347          39.000  
C 1  37902043.777   197365887.657         471.147          37.000  
C10  37477930.326   195157430.060        1133.896          38.000  
C 2  38396586.141   199941099.834         395.074          36.000  
C 5  40036514.415   208480636.5873        391.051          32.000  
G 1  25513963.130   134076797.234       -1385.737          35.000  
G22  23392933.051   122930688.106        2362.953          40.000  
G 4  21867238.344   114913185.588        3752.977          43.000  
C 4  39076445.787   203481307.1463        447.601          35.000  
C19  23621084.466   123001181.454        -417.019          45.000  
> 2017 12 19  9 16 40.0002584  0 23                     
G29  23957960.911   125899898.434        2934.918          38.000  
G10  23094687.689   121363413.103       -3168.291          40.000  
G12  23670692.905   124390343.325       -2963.497          39.000  
G14  20520905.063   107838073.522        1287.019          44.000  
G25  21144508.940   111115114.905       -1205.516          44.000  
G31  20650600.342   108519627.670        1373.206          47.000  
G32  20472389.810   107583118.975        -164.024          48.000  
C20                                     -2770.448          39.000  
G 3  24509324.648   128797366.275        3345.774          39.000  
C 9  35925251.928   187072228.115         477.051          42.000  
C 6  36403932.035   189564837.093         -78.059          42.000  
C 7  36264479.170   188838660.517         765.895          41.000  
C 3  37516547.038   195358504.200         454.099          38.000  
G26  23312417.511   122507650.750        4027.103          39.000  
C 1  37901953.245   197365416.032         470.848          37.000  
C10  37477712.599   195156296.707        1132.765          38.000  
C 2  38396510.425   199940704.632         394.878          36.000  
C 5  40036439.414   208480245.7973        390.425          32.000  
G 1  25514226.777   134078183.320       -1386.774          35.000  
G22  23392483.228   122928325.672        2362.069          40.000  
G 4  21866524.281   114909433.056        3751.914          43.000  
C 4  39076359.984   203480859.4562        447.111          35.000  
C19  23621164.615   123001598.840        -417.973          45.000  
> 2017 12 19  9 16 41.0002584  0 23                     
G29  23957402.425   125896963.558        2934.930          38.000  
G10  23095290.193   121366581.035       -3167.625          40.000  
G12  23671256.905   124393306.883       -2963.221          38.000  
G14  20520660.070   107836786.373        1287.406          44.000  
G25  21144738.507   111116320.325       -1205.324          44.000  
G31  20650339.522   108518254.145        1373.710          47.000  
G32  20472420.845   107583282.928        -163.791          48.000  
C20                                     -2769.624          39.000  
G 3  24508688.046   128794020.314        3346.071          39.000  
C 9  35925160.393   187071750.546         477.930          42.000  
C 6  36403946.554   189564914.575         -77.245          42.000  
C 7  36264331.908   188837894.177         766.825          41.000  
C 3  37516459.805   195358049.322         455.521          37.000  
G26  23311651.098   122503623.111        4027.649          39.000  
C 1  37901862.600   197364944.384         471.719          37.000  
C10  37477495.109   195155163.426        1133.613          38.000  
C 2  38396434.394   199940309.461         395.184          36.000  
C 5  40036364.404   208479855.0482        391.300          32.000  
G 1  25514490.581   134079569.744       -1386.659          35.000  
G22  23392033.824   122925963.744        2362.093          40.000  
G 4  21865810.297   114905680.911        3752.297          43.000  
C 4  39076274.068   203480411.7492        448.207          35.000  
C19  23621244.947   123002016.774        -417.739          45.000  
> 2017 12 19  9 16 42.0002584  0 23                     
G29  23956844.088   125894029.020        2934.814          38.000  
G10  23095893.054   121369749.281       -3168.662          40.000  
G12  23671821.166   124396270.858       -2963.998          39.000  
G14  20520415.078   107835499.707        1286.657          44.000  
G25  21144968.108   111117526.452       -1206.180          44.000  
G31  20650078.179   108516881.087        1373.243          47.000  
G32  20472452.038   107583447.452        -164.510          48.000  
C20                                     -2770.547          39.000  
G 3  24508051.436   128790674.811        3345.552          39.000  
C 9  35925068.622   187071273.208         477.344          42.000  
C 6  36403961.779   189564992.322         -77.737          42.000  
C 7  36264184.793   188837128.076         766.253          41.000  
C 3  37516372.344   195357594.569         455.069          38.000  
G26  23310884.492   122499595.807        4027.254          39.000  
C 1  37901771.964   197364472.850         471.765          37.000  
C10  37477277.644   195154030.372        1132.929          38.000  
C 2  38396358.547   199939914.386         395.506          36.000  
C 5  40036289.569   208479464.3712        390.935          32.000  
G 1  25514754.646   134080956.615       -1386.699          35.000  
G22  23391584.420   122923602.408        2361.483          40.000  
G 4  21865096.338   114901929.255        3751.792          43.000  
C 4  39076188.056   203479964.1742        447.950          35.000  
C19  23621325.105   123002435.360        -418.611          45.000  
> 2017 12 19  9 16 43.0002584  0 23                     
G29  23956285.393   125891094.908        2933.960          38.000  
G10  23096496.064   121372917.815       -3169.262          40.000  
G12  23672385.175   124399235.212       -2964.350          39.000  
G14  20520170.548   107834213.496        1285.935          44.000  
G25  21145197.491   111118733.331       -1207.215          44.000  
G31  20649817.019   108515508.506        1372.367          47.000  
G32  20472483.352   107583612.562        -165.321          48.000  
C20                                     -2770.610          39.000  
G 3  24507414.983   128787329.835        3344.485          39.000  
C 9  35924977.087   187070796.100         476.978          42.000  
C 6  36403976.638   189565070.279         -77.860          42.000  
C 7  36264037.741   188836362.166         766.008          41.000  
C 3  37516284.814   195357139.908         455.033          37.000  
G26  23310118.358   122495568.851        4026.475          39.000  
C 1  37901681.624   197364001.464         471.569          37.000  
C10  37477060.162   195152897.531        1132.693          38.000  
C 2  38396282.909   199939519.451         394.835          36.000  
C 5  40036214.550   208479074.8473        390.570          32.000  
G 1  25515018.650   134082344.000       -1388.022          35.000  
G22  23391135.094   122921241.670        2360.786          40.000  
G 4  21864382.799   114898178.111        3751.069          43.000  
C 4  39076101.974   203479516.7422        447.083          35.000  
C19  23621405.550   123002854.629        -419.699          45.000  
> 2017 12 19  9 16 44.0002584  0 23                     
G29  23955727.013   125888160.898        2933.777          38.000  
G10  23097099.083   121376086.344       -3168.724          40.000  
G12  23672949.227   124402199.735       -2964.740          39.000  
G14  20519925.660   107832927.506        1285.722          44.000  
G25  21145427.223   111119940.666       -1207.676          44.000  
G31  20649555.894   108514136.132        1372.111          47.000  
G32  20472514.858   107583777.985        -165.663          48.000  
C20                                     -2770.806          39.000  
G 3  24506778.373   128783985.030        3344.746          39.000  
C 9  35924885.377   187070318.944         477.075          42.000  
C 6  36403991.602   189565148.237         -77.761          42.000  
C 7  36263890.391   188835596.211         766.134          41.000  
C 3  37516197.301   195356685.133         454.865          38.000  
G26  23309351.822   122491541.974        4026.542          39.000  
C 1  37901591.092   197363529.916         471.827          37.000  
C10  37476842.680   195151764.639        1132.509          38.000  
C 2  38396207.157   199939124.325         395.151          36.000  
C 5  40036139.541   208478684.1722        390.348          32.000  
G 1  25515282.978   134083731.517       -1387.524          35.000  
G22  23390686.153   122918881.312        2360.170          40.000  
G 4  21863668.945   114894427.239        3750.551          43.000  
C 4  39076016.119   203479069.1462        447.111          35.000  
C19  23621486.144   123003274.283        -419.872          45.000  
> 2017 12 19  9 16 45.0002584  0 23                     
G29  23955168.832   125885227.168        2933.612          38.000  
G10  23097701.961   121379255.138       -3168.983          40.000  
G12  23673513.418   124405164.576       -2965.220          39.000  
G14  20519681.000   107831641.909        1285.425          44.000  
G25  21145657.156   111121148.640       -1208.429          44.000  
G31  20649294.804   108512764.150        1371.807          47.000  
G32  20472546.714   107583943.907        -166.065          48.000  
C20                                     -2771.125          39.000  
G 3  24506141.763   128780640.648        3344.222          38.000  
C 9  35924793.711   187069841.946         477.063          42.000  
C 6  36404006.775   189565226.377         -78.322          42.000  
C 7  36263743.224   188834830.421         765.529          41.000  
C 3  37516110.076   195356230.406         454.555          37.000  
G26  23308585.374   122487515.326        4026.625          39.000  
C 1  37901500.107   197363058.432         471.540          37.000  
C10  37476625.163   195150631.887        1132.854          38.000  
C 2  38396131.205   199938729.294         394.499          36.000  
C 5  40036064.758   208478294.5203        390.753          32.000  
G 1  25515547.121   134085119.471       -1388.057          35.000  
G22  23390237.316   122916521.460        2359.598          40.000  
G 4  21862955.258   114890676.759        3750.273          43.000  
C 4  39075930.438   203478621.5722        447.370          35.000  
C19  23621566.825   123003694.517        -420.533          45.000  
> 2017 12 19  9 16 46.0002584  0 23                     
G29  23954610.644   125882293.744        2933.405          38.000  
G10  23098305.058   121382424.159       -3169.149          40.000  
G12  23674077.523   124408129.748       -2965.374          39.000  
G14  20519436.313   107830356.704        1284.898          44.000  
G25  21145887.351   111122357.265       -1208.720          44.000  
G31  20649033.949   108511392.560        1371.509          47.000  
G32  20472578.342   107584110.324        -166.465          48.000  
C20                                     -2771.393          39.000  
G 3  24505505.580   128777296.648        3343.865          38.000  
C 9  35924702.185   187069365.082         476.929          42.000  
C 6  36404021.520   189565304.659         -78.064          42.000  
C 7  36263596.041   188834064.724         765.781          42.000  
C 3  37516022.616   195355775.688         454.749          37.000  
G26  23307819.196   122483488.957        4026.377          39.000  
C 1  37901409.723   197362586.964         471.659          37.000  
C10  37476407.341   195149499.251        1132.604          38.000  
C 2  38396055.297   199938334.261         394.857          36.000  
C 5  40035989.739   208477903.8983        391.064          32.000  
G 1  25515811.257   134086507.807       -1388.493          35.000  
G22  23389788.287   122914162.148        2359.020          40.000  
G 4  21862242.102   114886926.736        3749.745          43.000  
C 4  39075844.845   203478173.520         448.082          35.000  
C19  23621647.794   123004115.321        -420.946          45.000  
> 2017 12 19  9 16 47.0002584  0 23                     
G29  23954052.525   125879360.633        2933.386          38.000  
G10  23098908.007   121385593.376       -3168.803          40.000  
G12  23674641.732   124411095.209       -2965.086          39.000  
G14  20519192.001   107829071.892        1284.991          44.000  
G25  21146117.606   111123566.551       -1209.406          44.000  
G31  20648772.728   108510021.353        1371.491          47.000  
G32  20472610.110   107584277.250        -166.883          48.000  
C20                                     -2771.166          39.000  
G 3  24504869.119   128773953.078        3343.727          38.000  
C 9  35924610.824   187068888.358         477.014          42.000  
C 6  36404036.684   189565383.123         -78.110          42.000  
C 7  36263449.049   188833299.191         765.698          42.000  
C 3  37515935.103   195355321.001         454.966          37.000  
G26  23307053.140   122479462.841        4026.608          39.000  
C 1  37901319.096   197362115.531         471.710          37.000  
C10  37476189.937   195148366.756        1132.513          38.000  
C 2  38395979.537   199937939.271         395.150          36.000  
C 5  40035914.808   208477514.3212        390.970          32.000  
G 1  25516075.584   134087896.519       -1388.223          35.000  
G22  23389339.511   122911803.356        2358.721          40.000  
G 4  21861528.467   114883177.124        3749.752          43.000  
C 4  39075758.990   203477726.023         448.483          35.000  
C19  23621728.815   123004536.717        -421.351          45.000  
> 2017 12 19  9 16 48.0002584  0 23                     
G29  23953494.432   125876427.700        2932.812          38.000  
G10  23099511.025   121388762.712       -3169.292          40.000  
G12  23675205.906   124414060.929       -2965.637          39.000  
G14  20518947.453   107827787.382        1284.483          44.000  
G25  21146347.705   111124776.357       -1209.812          44.000  
G31  20648511.743   108508650.443        1370.965          47.000  
G32  20472642.009   107584444.557        -167.359          48.000  
C20                                     -2771.336          39.000  
G 3  24504232.683   128770609.777        3343.455          38.000  
C 9  35924519.263   187068411.686         476.862          42.000  
C 6  36404051.691   189565461.628         -78.176          42.000  
C 7  36263302.074   188832533.656         765.847          41.000  
C 3  37515847.869   195354866.266         454.949          38.000  
G26  23306287.215   122475436.903        4026.066          39.000  
C 1  37901228.442   197361644.055         471.600          37.000  
C10  37475972.542   195147234.279        1132.755          38.000  
C 2  38395903.663   199937544.225         395.235          36.000  
C 5  40035839.598   208477122.6983        390.285          32.000  
G 1  25516339.859   134089285.550       -1389.366          35.000  
G22  23388890.639   122909444.977        2358.341          40.000  
G 4  21860815.111   114879427.839        3749.390          43.000  
C 4  39075672.934   203477278.529         447.520          35.000  
C19  23621809.802   123004958.584        -421.999          45.000  
> 2017 12 19  9 16 49.0002584  0 23                     
G29  23952936.435   125873494.910        2933.233          38.000  
G10  23100114.018   121391932.151       -3169.678          40.000  
G12  23675770.604   124417026.821       -2965.660          39.000  
G14  20518703.159   107826503.125        1284.388          44.000  
G25  21146577.899   111125986.691       -1210.322          44.000  
G31  20648250.827   108507279.778        1370.795          47.000  
G32  20472673.839   107584612.236        -167.595          48.000  
C20                                     -2771.680          39.000  
G 3  24503596.125   128767266.735        3343.385          38.000  
C 9  35924427.588   187067935.008         476.904          42.000  
C 6  36404066.664   189565540.175         -78.237          41.000  
C 7  36263155.065   188831768.147         765.714          41.000  
C 3  37515760.740   195354411.423         455.269          38.000  
G26  23305521.377   122471411.072        4026.143          39.000  
C 1  37901137.561   197361172.467         471.901          37.000  
C10  37475755.104   195146101.832        1132.917          38.000  
C 2  38395827.816   199937149.071         395.416          36.000  
C 5  40035764.378   208476730.9533        390.354          32.000  
G 1  25516604.291   134090674.789       -1389.106          35.000  
G22  23388441.924   122907087.003        2358.078          40.000  
G 4  21860101.850   114875678.840        3749.119          43.000  
C 4  39075586.983   203476835.3693        447.910          35.000  
C19  23621890.867   123005380.894        -422.351          45.000  
> 2017 12 19  9 16 50.0002584  0 23                     
G29  23952378.342   125870562.522        2932.117          39.000  
G10  23100717.376   121395101.875       -3169.919          40.000  
G12  23676334.700   124419993.120       -2967.033          39.000  
G14  20518458.908   107825219.340        1283.466          44.000  
G25  21146808.417   111127197.741       -1211.517          44.000  
G31  20647990.435   108505909.577        1369.756          47.000  
G32  20472705.930   107584780.481        -168.672          48.000  
C20                                     -2772.425          39.000  
G 3  24502959.847   128763924.184        3342.145          38.000  
C 9  35924336.106   187067458.550         476.361          42.000  
C 6  36404082.011   189565618.954         -78.840          42.000  
C 7  36263008.090   188831002.837         765.055          41.000  
C 3  37515673.306   195353956.703         454.686          38.000  
G26  23304755.374   122467385.581        4025.101          39.000  
C 1  37901047.151   197360700.995         471.486          37.000  
C10  37475537.788   195144969.604        1131.854          38.000  
C 2  38395751.846   199936754.017         395.026          36.000  
C 5  40035689.517   208476340.2982        390.762          32.000  
G 1  25516868.731   134092064.493       -1389.884          35.000  
G22  23387993.427   122904729.640        2356.870          40.000  
G 4  21859388.616   114871930.362        3748.168          43.000  
C 4  39075501.093   203476387.8282        447.326          35.000  
C19  23621972.098   123005803.859        -423.451          45.000  
> 2017 12 19  9 16 51.0002584  0 23                     
G29  23951820.738   125867630.550        2931.934          38.000  
G10  23101320.822   121398271.932       -3170.128          40.000  
G12  23676899.153   124422959.847       -2966.921          39.000  
G14  20518214.728   107823936.065        1283.240          44.000  
G25  21147038.882   111128409.564       -1211.991          44.000  
G31  20647729.816   108504539.880        1369.672          47.000  
G32  20472738.273   107584949.345        -168.976          48.000  
C20                                     -2772.542          39.000  
G 3  24502323.690   128760582.140        3341.812          38.000  
C 9  35924244.797   187066982.369         476.343          42.000  
C 6  36404097.018   189565698.022         -79.169          42.000  
C 7  36262861.308   188830237.783         765.226          41.000  
C 3  37515586.107   195353502.149         454.678          38.000  
G26  23303989.440   122463360.455        4025.211          39.000  
C 1  37900956.515   197360229.665         471.871          37.000  
C10  37475320.288   195143837.603        1131.972          38.000  
C 2  38395676.208   199936359.157         394.789          36.000  
C 5  40035614.734   208475951.8493        390.697          32.000  
G 1  25517133.250   134093454.730       -1389.938          35.000  
G22  23387544.983   122902372.908        2356.646          40.000  
G 4  21858675.260   114868182.422        3747.911          43.000  
C 4  39075415.229   203475940.4522        447.404          35.000  
C19  23622053.259   123006227.515        -423.841          45.000  
> 2017 12 19  9 16 52.0002584  0 23                     
G29  23951262.828   125864698.767        2931.604          38.000  
G10  23101923.972   121401442.127       -3170.126          40.000  
G12  23677464.026   124425926.826       -2967.213          39.000  
G14  20517970.573   107822653.098        1282.954          44.000  
G25  21147269.748   111129621.945       -1212.746          44.000  
G31  20647469.119   108503170.490        1369.275          47.000  
G32  20472770.661   107585118.621        -169.365          48.000  
C20                                     -2772.152          39.000  
G 3  24501687.673   128757240.407        3341.661          38.000  
C 9  35924153.349   187066506.244         476.093          42.000  
C 6  36404112.427   189565777.153         -79.138          41.000  
C 7  36262714.534   188829472.777         764.930          42.000  
C 3  37515498.934   195353047.544         454.214          37.000  
G26  23303223.707   122459335.482        4025.163          39.000  
C 1  37900866.245   197359758.330         471.208          37.000  
C10  37475102.771   195142705.658        1131.566          38.000  
C 2  38395600.317   199935964.229         394.929          36.000  
C 5  40035539.803   208475561.3593        390.158          32.000  
G 1  25517397.909   134094845.235       -1390.746          35.000  
G22  23387096.739   122900016.630        2356.064          40.000  
G 4  21857962.183   114864434.834        3747.406          43.000  
C 4  39075329.217   203475493.0282        447.600          35.000  
C19  23622134.707   123006651.674        -424.396          45.000  
> 2017 12 19  9 16 53.0002584  0 23                     
G29  23950705.206   125861767.118        2931.055          39.000  
G10  23102527.365   121404612.359       -3170.445          40.000  
G12  23678028.750   124428893.943       -2967.499          39.000  
G14  20517726.497   107821370.363        1282.102          44.000  
G25  21147500.571   111130834.785       -1213.462          44.000  
G31  20647208.761   108501801.326        1368.571          47.000  
G32  20472802.918   107585288.232        -170.371          48.000  
C20                                     -2773.054          39.000  
G 3  24501051.962   128753898.898        3340.868          38.000  
C 9  35924062.059   187066030.088         475.610          42.000  
C 6  36404127.705   189565856.298         -79.775          42.000  
C 7  36262567.568   188828707.715         764.527          42.000  
C 3  37515411.788   195352592.781         454.385          38.000  
G26  23302457.634   122455310.631        4024.449          39.000  
C 1  37900775.635   197359286.803         471.585          37.000  
C10  37474885.324   195141573.662        1131.718          38.000  
C 2  38395524.557   199935569.155         394.435          36.000  
C 5  40035464.671   208475169.6782        389.870          32.000  
G 1  25517662.515   134096235.978       -1391.479          35.000  
G22  23386648.312   122897660.722        2354.884          40.000  
G 4  21857248.836   114860687.510        3746.472          43.000  
C 4  39075243.135   203475044.4843        446.912          35.000  
C19  23622216.601   123007076.241        -425.364          45.000  
> 2017 12 19  9 16 54.0002584  0 23                     
G29  23950147.253   125858835.810        2930.811          38.000  
G10  23103130.279   121407782.869       -3171.073          39.000  
G12  23678593.229   124431861.433       -2967.718          39.000  
G14  20517482.386   107820088.057        1281.796          44.000  
G25  21147731.847   111132048.329       -1214.315          44.000  
G31  20646948.387   108500432.579        1368.290          47.000  
G32  20472835.131   107585458.366        -170.774          48.000  
C20                                     -2773.435          39.000  
G 3  24500416.128   128750557.846        3340.510          38.000  
C 9  35923970.506   187065554.102         475.482          42.000  
C 6  36404142.843   189565935.630         -79.917          42.000  
C 7  36262420.690   188827942.834         764.515          42.000  
C 3  37515324.450   195352138.098         454.279          37.000  
G26  23301691.927   122451286.062        4024.064          39.000  
C 1  37900685.173   197358815.405         471.079          37.000  
C10  37474667.929   195140441.838        1131.623          38.000  
C 2  38395448.570   199935174.138         394.577          36.000  
C 5  40035389.775   208474780.1113        389.801          32.000  
G 1  25517927.226   134097627.132       -1391.650          34.000  
G22  23386200.426   122895305.343        2355.066          40.000  
G 4  21856535.898   114856940.627        3746.229          43.000  
C 4  39075156.879   203474597.0022        446.685          35.000  
C19  23622298.129   123007501.414        -425.815          45.000  
> 2017 12 19  9 16 55.0002584  0 23                     
G29  23949589.492   125855905.006        2930.450          39.000  
G10  23103733.716   121410953.807       -3171.224          39.000  
G12  23679158.093   124434829.467       -2968.276          39.000  
G14  20517238.493   107818806.351        1281.399          44.000  
G25  21147962.687   111133262.714       -1214.803          44.000  
G31  20646688.012   108499064.437        1367.899          47.000  
G32  20472867.527   107585629.206        -171.200          48.000  
C20                                     -2773.587          39.000  
G 3  24499780.609   128747217.396        3340.078          38.000  
C 9  35923879.163   187065078.455         475.525          42.000  
C 6  36404158.286   189566015.319         -79.740          42.000  
C 7  36262273.881   188827178.279         764.449          42.000  
C 3  37515237.181   195351683.650         454.585          37.000  
G26  23300926.011   122447261.956        4023.983          39.000  
C 1  37900594.868   197358344.247         470.894          37.000  
C10  37474450.709   195139310.373        1131.366          38.000  
C 2  38395372.810   199934780.8983        394.700          36.000  
C 5  40035314.756   208474389.7723        390.119          32.000  
G 1  25518192.112   134099018.861       -1391.884          34.000  
G22  23385752.252   122892950.721        2354.516          40.000  
G 4  21855822.856   114853194.379        3745.935          43.000  
C 4  39075070.893   203474149.7502        447.123          35.000  
C19  23622379.621   123007927.373        -426.321          45.000  
> 2017 12 19  9 16 56.0002584  0 23                     
G29  23949031.791   125852974.377        2930.426          39.000  
G10  23104337.040   121414124.836       -3171.353          40.000  
G12  23679723.305   124437797.675       -2968.428          39.000  
G14  20516994.486   107817524.934        1280.996          44.000  
G25  21148193.798   111134477.631       -1215.394          44.000  
G31  20646427.628   108497696.560        1367.613          47.000  
G32  20472900.238   107585800.425        -171.554          48.000  
C20                                     -2773.863          40.000  
G 3  24499145.046   128743877.214        3339.820          38.000  
C 9  35923787.636   187064602.850         475.189          43.000  
C 6  36404173.319   189566095.067         -79.683          43.000  
C 7  36262127.020   188826413.749         764.441          43.000  
C 3  37515149.677   195351229.142         454.566          39.000  
G26  23300160.086   122443238.004        4023.896          39.000  
C 1  37900504.389   197357872.970         471.281          38.000  
C10  37474233.698   195138178.927        1131.417          39.000  
C 2  38395296.849   199934386.0512        394.998          37.000  
C 5  40035239.668   208473998.3362        390.233          33.000  
G 1  25518456.832   134100410.915       -1392.619          34.000  
G22  23385304.287   122890596.511        2353.684          40.000  
G 4  21855109.884   114849448.455        3745.525          43.000  
C 4  39074985.011   203473702.4282        447.098          36.000  
C19  23622461.786   123008353.801        -426.772          46.000  
> 2017 12 19  9 16 57.0002584  0 23                     
G29  23948474.257   125850044.089        2930.219          39.000  
G10  23104940.704   121417296.115       -3170.972          40.000  
G12  23680288.675   124440766.282       -2968.731          39.000  
G14  20516750.776   107816243.952        1280.705          44.000  
G25  21148425.048   111135693.230       -1215.963          44.000  
G31  20646167.437   108496329.130        1367.254          47.000  
G32  20472932.983   107585972.190        -172.046          48.000  
C20                                     -2773.550          38.000  
G 3  24498509.858   128740537.479        3339.730          39.000  
C 9  35923696.651   187064127.436         475.177          42.000  
C 6  36404188.719   189566175.048         -80.038          41.000  
C 7  36261980.185   188825649.407         764.268          41.000  
C 3  37515062.330   195350774.720         454.240          36.000  
G26  23299394.527   122439214.347        4023.648          39.000  
C 1  37900414.057   197357401.834         470.736          38.000  
C10  37474016.478   195137047.648        1131.058          39.000  
C 2  38395220.949   199933991.3332        394.373          37.000  
C 5  40035164.719   208473607.9442        390.770          32.000  
G 1  25518721.630   134101803.347       -1393.094          34.000  
G22  23384856.366   122888242.880        2353.248          40.000  
G 4  21854397.008   114845702.993        3745.393          43.000  
C 4  39074899.121   203473255.1712        447.599          36.000  
C19  23622543.749   123008780.853        -427.338          44.000  
> 2017 12 19  9 16 58.0002584  0 23                     
G29  23947916.504   125847114.126        2929.492          38.000  
G10  23105544.342   121420467.649       -3172.010          40.000  
G12  23680853.530   124443735.208       -2969.189          39.000  
G14  20516507.154   107814963.381        1280.199          44.000  
G25  21148656.735   111136909.504       -1216.969          44.000  
G31  20645907.464   108494962.086        1366.667          47.000  
G32  20472965.894   107586144.466        -172.787          48.000  
C20                                     -2774.583          38.000  
G 3  24497874.164   128737198.168        3338.950          39.000  
C 9  35923605.413   187063652.173         474.811          42.000  
C 6  36404203.936   189566255.168         -80.400          41.000  
C 7  36261833.377   188824885.193         764.016          41.000  
C 3  37514975.175   195350320.314         454.470          37.000  
G26  23298629.108   122435190.957        4023.067          39.000  
C 1  37900323.508   197356930.700         470.799          37.000  
C10  37473799.187   195135916.498        1130.816          37.000  
C 2  38395145.067   199933596.5992        394.529          36.000  
C 5  40035089.989   208473218.6983        390.350          32.000  
G 1  25518986.629   134103196.182       -1393.542          34.000  
G22  23384408.768   122885889.775        2352.607          40.000  
G 4  21853684.568   114841957.978        3744.446          43.000  
C 4  39074813.266   203472807.9832        446.840          35.000  
C19  23622626.123   123009208.487        -428.121          44.000  
> 2017 12 19  9 16 59.0002584  0 23                     
G29  23947359.153   125844184.437        2929.352          39.000  
G10  23106147.910   121423639.342       -3171.880          40.000  
G12  23681418.603   124446704.428       -2969.533          39.000  
G14  20516263.505   107813683.173        1279.875          44.000  
G25  21148888.326   111138126.370       -1217.292          44.000  
G31  20645647.490   108493595.404        1366.355          47.000  
G32  20472998.762   107586317.202        -173.141          48.000  
G 3  24497238.906   128733859.248        3338.546          39.000  
C 9  35923514.139   187063177.010         474.908          42.000  
C 6  36404219.519   189566335.434         -80.570          41.000  
C 7  36261686.577   188824121.105         763.604          41.000  
C 3  37514887.959   195349865.929         454.511          37.000  
G26  23297863.462   122431167.801        4022.658          39.000  
C 1  37900232.854   197356459.552         471.378          36.000  
C10  37473581.880   195134785.472        1130.816          38.000  
C 2  38395069.482   199933201.8932        394.846          36.000  
C 5  40035014.944   208472828.4082        390.354          32.000  
G 1  25519251.803   134104589.369       -1393.630          34.000  
G22  23383960.847   122883537.188        2352.250          40.000  
C20                                     -2774.490          39.000  
G 4  21852971.587   114838213.344        3744.526          43.000  
C 4  39074727.176   203472360.7612        446.892          35.000  
C19  23622708.296   123009636.676        -428.720          44.000  
> 2017 12 19  9 17  0.0002584  0 23                     
G29  23946801.785   125841254.854        2929.944          39.000  
G10  23106751.723   121426811.115       -3171.497          40.000  
G12  23681983.335   124449673.812       -2969.219          39.000  
G14  20516019.769   107812403.183        1280.017          44.000  
G25  21149119.960   111139343.727       -1217.575          44.000  
G31  20645387.473   108492228.947        1366.534          47.000  
G32  20473031.673   107586490.270        -173.183          48.000  
C20                                     -2774.258          39.000  
G 3  24496603.701   128730520.500        3339.176          39.000  
C 9  35923422.674   187062701.831         475.208          42.000  
C 6  36404235.102   189566415.680         -79.991          41.000  
C 7  36261539.759   188823356.925         764.275          41.000  
C 3  37514800.725   195349411.422         454.802          37.000  
G26  23297097.825   122427144.708        4023.251          39.000  
C 1  37900142.253   197355988.305         471.664          36.000  
C10  37473364.537   195133654.390        1131.226          38.000  
C 2  38394993.591   199932807.0952        394.744          36.000  
C 5  40034939.987   208472438.0083        390.485          31.000  
G 1  25519516.950   134105982.770       -1393.295          34.000  
G22  23383513.258   122881184.940        2352.296          40.000  
G 4  21852258.894   114834468.980        3744.398          43.000  
C 4  39074641.103   203471909.4633        447.248          34.000  
C19  23622790.626   123010065.255        -428.472          44.000  
> 2017 12 19  9 17  1.0002584  0 23                     
G29  23946244.477   125838325.522        2929.175          39.000  
G10  23107355.396   121429983.018       -3172.085          40.000  
G12  23682548.286   124452643.453       -2970.004          39.000  
G14  20515776.217   107811123.540        1279.301          44.000  
G25  21149351.568   111140561.660       -1218.432          44.000  
G31  20645127.387   108490862.820        1365.819          47.000  
G32  20473064.488   107586663.777        -173.830          48.000  
C20                                     -2774.678          39.000  
G 3  24495968.626   128727182.163        3337.888          39.000  
C 9  35923331.715   187062226.724         474.927          42.000  
C 6  36404250.423   189566496.039         -80.483          41.000  
C 7  36261393.169   188822592.853         763.859          41.000  
C 3  37514713.404   195348956.892         454.288          37.000  
G26  23296332.276   122423121.847        4022.462          39.000  
C 1  37900052.044   197355517.064         470.687          37.000  
C10  37473147.335   195132523.405        1130.915          38.000  
C 2  38394917.647   199932411.730         394.397          36.000  
C 5  40034864.759   208472046.5663        389.920          32.000  
G 1  25519782.124   134107376.515       -1394.045          34.000  
G22  23383065.328   122878833.156        2351.541          40.000  
G 4  21851546.366   114830725.003        3743.580          43.000  
C 4  39074554.898   203471462.1202        447.103          35.000  
C19  23622873.000   123010494.376        -429.530          45.000  
> 2017 12 19  9 17  2.0002584  0 23                     
G29  23945687.126   125835396.411        2928.986          38.000  
G10  23107958.842   121433155.079       -3172.071          40.000  
G12  23683113.368   124455613.312       -2969.743          39.000  
G14  20515532.786   107809844.191        1279.334          44.000  
G25  21149583.089   111141780.143       -1218.562          44.000  
G31  20644867.256   108489496.978        1365.654          47.000  
G32  20473097.547   107586837.692        -174.061          48.000  
G 3  24495333.273   128723844.097        3337.867          39.000  
C 9  35923240.520   187061751.693         475.085          42.000  
C 6  36404266.242   189566576.472         -80.236          42.000  
C 7  36261246.508   188821828.801         764.385          41.000  
C 3  37514626.083   195348502.309         454.322          37.000  
G26  23295566.473   122419099.127        4022.815          39.000  
C 1  37899961.556   197355045.732         471.055          37.000  
C10  37472930.245   195131392.450        1131.113          38.000  
C 2  38394841.521   199932016.806         394.919          36.000  
C 5  40034789.723   208471655.0602        390.339          32.000  
G 1  25520047.410   134108770.542       -1394.081          34.000  
G22  23382618.027   122876481.837        2351.134          40.000  
C20                                     -2774.426          39.000  
G 4  21850834.214   114826981.343        3743.587          43.000  
C 4  39074469.148   203471014.6882        448.086          35.000  
C19  23622955.426   123010923.980        -429.774          45.000  
> 2017 12 19  9 17  3.0002584  0 23                     
G29  23945129.504   125832467.493        2928.912          38.000  
G10  23108562.671   121436327.258       -3172.323          40.000  
G12  23683678.781   124458583.429       -2970.130          39.000  
G14  20515289.251   107808565.164        1279.140          44.000  
G25  21149815.037   111142999.205       -1219.207          44.000  
G31  20644607.344   108488131.450        1365.534          47.000  
G32  20473130.790   107587012.025        -174.383          48.000  
G 3  24494698.155   128720506.351        3337.604          39.000  
C 9  35923149.360   187061276.721         475.177          42.000  
C 6  36404281.502   189566657.016         -80.253          42.000  
C 7  36261099.778   188821064.826         764.191          42.000  
C 3  37514538.640   195348047.661         454.937          38.000  
G26  23294800.530   122415076.601        4022.771          39.000  
C 1  37899871.120   197354574.366         471.355          37.000  
C10  37472713.278   195130261.573        1130.441          38.000  
C 2  38394765.691   199931621.848         395.523          36.000  
C 5  40034714.704   208471264.5153        390.681          32.000  
G 1  25520312.907   134110164.892       -1394.358          34.000  
G22  23382170.481   122874130.952        2350.756          40.000  
C20                                     -2774.399          39.000  
G 4  21850122.080   114823238.049        3742.983          43.000  
C 4  39074383.180   203470567.2752        447.843          35.000  
C19  23623037.878   123011354.079        -430.053          45.000  
> 2017 12 19  9 17  4.0002584  0 23                     
G29  23944572.100   125829538.863        2928.436          39.000  
G10  23109166.144   121439499.648       -3172.395          40.000  
G12  23684243.880   124461553.844       -2970.396          39.000  
G14  20515046.073   107807286.525        1278.732          44.000  
G25  21150046.994   111144218.896       -1219.902          44.000  
G31  20644347.615   108486766.304        1365.014          47.000  
G32  20473163.919   107587186.844        -174.865          48.000  
C20                                     -2775.023          39.000  
G 3  24494063.080   128717169.009        3337.307          39.000  
C 9  35923058.313   187060801.886         474.902          42.000  
C 6  36404297.085   189566737.707         -80.580          42.000  
C 7  36260953.266   188820301.002         763.822          42.000  
C 3  37514451.311   195347593.079         454.412          38.000  
G26  23294035.295   122411054.312        4022.584          39.000  
C 1  37899780.423   197354103.016         471.506          37.000  
C10  37472496.040   195129130.790        1130.891          38.000  
C 2  38394689.939   199931226.945         394.887          36.000  
C 5  40034639.991   208470876.0103        390.552          32.000  
G 1  25520578.290   134111559.632       -1395.373          34.000  
G22  23381723.328   122871780.598        2350.059          40.000  
G 4  21849409.701   114819495.167        3742.652          43.000  
C 4  39074297.333   203470119.9082        447.433          35.000  
C19  23623120.523   123011784.760        -430.822          45.000  
> 2017 12 19  9 17  5.0002584  0 23                     
G29  23944015.020   125826610.572        2928.564          38.000  
G10  23109770.200   121442672.298       -3172.295          39.000  
G12  23684809.529   124464524.630       -2970.449          39.000  
G14  20514802.844   107806008.336        1278.192          44.000  
G25  21150279.195   111145439.280       -1220.431          44.000  
G31  20644087.912   108485401.586        1364.877          47.000  
G32  20473197.520   107587362.210        -175.329          48.000  
C20                                     -2775.158          39.000  
G 3  24493428.259   128713832.091        3336.958          39.000  
C 9  35922967.180   187060327.220         474.866          42.000  
C 6  36404312.546   189566818.601         -80.872          42.000  
C 7  36260806.841   188819537.317         763.924          42.000  
C 3  37514364.164   195347138.569         454.384          37.000  
G26  23293270.024   122407032.367        4022.067          39.000  
C 1  37899689.865   197353631.769         471.711          37.000  
C10  37472278.898   195128000.216        1130.540          38.000  
C 2  38394614.136   199930832.097         395.073          36.000  
C 5  40034565.042   208470485.5832        390.662          32.000  
G 1  25520843.821   134112954.773       -1395.724          34.000  
G22  23381276.245   122869430.796        2349.926          40.000  
G 4  21848697.645   114815752.756        3742.350          43.000  
C 4  39074211.260   203469672.5562        447.860          35.000  
C19  23623203.481   123012216.062        -431.557          45.000  
> 2017 12 19  9 17  6.0002584  0 23                     
G29  23943457.791   125823682.504        2928.058          38.000  
G10  23110373.751   121445845.095       -3173.014          40.000  
G12  23685374.864   124467495.666       -2971.427          39.000  
G14  20514559.579   107804730.439        1277.703          44.000  
G25  21150511.527   111146660.219       -1221.543          44.000  
G31  20643828.270   108484037.163        1364.244          47.000  
G32  20473230.823   107587537.974        -175.959          48.000  
C20                                     -2775.274          37.000  
G 3  24492793.463   128710495.506        3336.198          39.000  
C 9  35922875.871   187059852.621         474.463          42.000  
C 6  36404327.894   189566899.548         -81.074          39.000  
C 7  36260660.059   188818773.677         763.531          39.000  
C 3  37514277.088   195346683.973         454.841          35.000  
G26  23292504.535   122403010.548        4021.640          38.000  
C 1  37899599.429   197353160.445         471.635          35.000  
C10  37472061.678   195126869.658        1130.099          36.000  
C 2  38394538.375   199930437.190         395.290          34.000  
C 5  40034490.024   208470095.0453        390.972          32.000  
G 1  25521109.335   134114350.207       -1396.061          34.000  
G22  23380829.545   122867081.436        2348.922          40.000  
G 4  21847985.859   114812010.677        3741.956          43.000  
C 4  39074125.422   203469225.1762        447.430          34.000  
C19  23623286.361   123012647.833        -432.131          44.000  
> 2017 12 19  9 17  7.0002584  0 23                     
G29  23942900.710   125820754.686        2927.509          38.000  
G10  23110977.363   121449018.033       -3173.260          40.000  
G12  23685940.286   124470466.923       -2971.566          39.000  
G14  20514316.576   107803452.880        1277.114          44.000  
G25  21150743.964   111147881.726       -1221.988          44.000  
G31  20643568.463   108482673.078        1363.730          47.000  
G32  20473264.336   107587714.180        -176.639          48.000  
C20                                     -2775.659          39.000  
G 3  24492158.685   128707159.239        3336.058          39.000  
C 9  35922784.886   187059378.092         474.353          42.000  
C 6  36404343.860   189566980.611         -81.157          42.000  
C 7  36260513.503   188818010.123         763.278          42.000  
C 3  37514189.610   195346229.356         454.741          37.000  
G26  23291739.343   122398988.961        4020.955          39.000  
C 1  37899508.862   197352689.148         471.103          37.000  
C10  37471844.772   195125739.176        1130.333          38.000  
C 2  38394462.877   199930042.292         394.498          35.000  
C 5  40034414.875   208469703.6132        389.960          32.000  
G 1  25521374.831   134115745.949       -1396.123          34.000  
G22  23380382.846   122864732.549        2348.582          40.000  
G 4  21847273.838   114808268.956        3741.755          43.000  
C 4  39074039.559   203468777.277         447.261          35.000  
C19  23623369.433   123013080.126        -432.618          44.000  
> 2017 12 19  9 17  8.0002584  0 23                     
G29  23942343.489   125817827.206        2927.295          38.000  
G10  23111581.463   121452191.257       -3173.253          40.000  
G12  23686505.838   124473438.581       -2971.536          39.000  
G14  20514073.294   107802175.784        1277.003          44.000  
G25  21150976.707   111149103.952       -1222.483          44.000  
G31  20643308.952   108481309.437        1363.482          47.000  
G32  20473298.007   107587890.958        -176.947          48.000  
C20                                     -2775.713          39.000  
G 3  24491524.143   128703823.454        3335.859          39.000  
C 9  35922693.613   187058903.773         474.243          42.000  
C 6  36404359.147   189567061.914         -81.696          42.000  
C 7  36260366.930   188817246.748         763.329          42.000  
C 3  37514102.411   195345774.874         454.221          38.000  
G26  23290974.116   122394967.659        4020.839          39.000  
C 1  37899418.461   197352217.948         471.155          37.000  
C10  37471627.857   195124608.907        1130.030          38.000  
C 2  38394386.986   199929647.471         395.026          36.000  
C 5  40034340.004   208469314.1673        389.997          32.000  
G 1  25521640.502   134117142.155       -1396.085          34.000  
G22  23379935.763   122862384.257        2348.188          40.000  
G 4  21846562.087   114804527.754        3741.145          43.000  
C 4  39073953.913   203468329.949         447.375          35.000  
C19  23623452.443   123013513.069        -433.093          45.000  
> 2017 12 19  9 17  9.0002584  0 23                     
G29  23941786.601   125814900.069        2926.660          38.000  
G10  23112185.372   121455364.721       -3173.735          40.000  
G12  23687071.042   124476410.590       -2972.421          39.000  
G14  20513830.282   107800899.109        1276.223          44.000  
G25  21151209.239   111150326.847       -1223.349          44.000  
G31  20643049.179   108479946.223        1362.882          47.000  
G32  20473331.982   107588068.245        -177.750          48.000  
C20                                     -2776.222          39.000  
G 3  24490889.566   128700488.072        3335.083          39.000  
C 9  35922602.365   187058429.619         474.109          42.000  
C 6  36404374.913   189567143.361         -81.652          42.000  
C 7  36260220.593   188816483.517         763.174          42.000  
C 3  37514015.099   195345320.427         454.227          37.000  
G26  23290208.698   122390946.655        4020.692          38.000  
C 1  37899327.851   197351746.774         471.136          37.000  
C10  37471410.977   195123478.791        1129.755          38.000  
C 2  38394311.165   199929252.726         394.619          36.000  
C 5  40034265.187   208468923.8563        388.946          32.000  
G 1  25521906.522   134118538.755       -1396.685          34.000  
G22  23379488.828   122860036.509        2347.477          40.000  
G 4  21845850.450   114800786.998        3740.310          43.000  
C 4  39073868.058   203467882.702         447.279          35.000  
C19  23623535.532   123013946.612        -434.042          45.000  
> 2017 12 19  9 17 10.0002584  0 23                     
G29  23941229.747   125811973.182        2926.520          39.000  
G10  23112789.359   121458538.352       -3173.882          40.000  
G12  23687636.805   124479382.876       -2972.349          39.000  
G14  20513587.663   107799622.788        1276.036          44.000  
G25  21151442.095   111151550.362       -1224.070          44.000  
G31  20642789.965   108478583.353        1362.696          47.000  
G32  20473365.661   107588245.992        -177.923          48.000  
C20                                     -2776.596          39.000  
G 3  24490254.945   128697153.074        3334.934          39.000  
C 9  35922511.441   187057955.574         473.920          42.000  
C 6  36404390.278   189567224.963         -81.517          42.000  
C 7  36260074.037   188815720.403         763.015          42.000  
C 3  37513927.551   195344865.987         454.510          38.000  
G26  23289443.575   122386925.868        4020.944          39.000  
C 1  37899237.407   197351275.607         471.081          37.000  
C10  37471193.774   195122348.767        1129.962          38.000  
C 2  38394235.213   199928857.4373        395.142          36.000  
C 5  40034190.168   208468533.4473        390.715          32.000  
G 1  25522172.568   134119935.687       -1396.481          34.000  
G22  23379042.128   122857689.249        2347.269          40.000  
G 4  21845138.734   114797046.628        3740.151          43.000  
C 4  39073782.290   203467435.483         446.882          35.000  
C19  23623618.840   123014380.683        -434.308          45.000  
> 2017 12 19  9 17 11.0002584  0 23                     
G29  23940672.980   125809046.496        2926.556          39.000  
G10  23113393.267   121461712.096       -3173.776          40.000  
G12  23688202.384   124482355.392       -2972.572          39.000  
G14  20513345.000   107798346.772        1275.914          44.000  
G25  21151675.108   111152774.405       -1224.158          44.000  
G31  20642530.925   108477220.783        1362.530          47.000  
G32  20473399.602   107588424.148        -178.211          48.000  
C20                                     -2776.393          39.000  
G 3  24489619.949   128693818.380        3334.849          39.000  
C 9  35922420.508   187057481.585         474.115          42.000  
C 6  36404406.149   189567306.628         -81.625          42.000  
C 7  36259927.254   188814957.332         763.172          41.000  
C 3  37513840.169   195344411.503         454.471          38.000  
G26  23288678.601   122382905.273        4020.500          39.000  
C 1  37899146.840   197350804.396         471.403          37.000  
C10  37470976.781   195121218.798        1129.573          38.000  
C 2  38394159.531   199928462.6402        395.013          36.000  
C 5  40034115.280   208468143.0172        390.920          32.000  
G 1  25522438.753   134121332.975       -1397.177          34.000  
G22  23378595.769   122855342.452        2346.527          40.000  
G 4  21844426.643   114793306.592        3740.056          43.000  
C 4  39073696.522   203466988.177         447.044          35.000  
C19  23623702.339   123014815.256        -434.680          45.000  
> 2017 12 19  9 17 12.0002584  0 23                     
G29  23940115.926   125806120.151        2926.489          39.000  
G10  23113997.332   121464886.131       -3174.159          40.000  
G12  23688767.875   124485328.274       -2973.098          39.000  
G14  20513102.241   107797071.196        1275.304          44.000  
G25  21151908.051   111153999.151       -1225.167          44.000  
G31  20642271.545   108475858.644        1361.931          47.000  
G32  20473433.359   107588602.847        -178.944          48.000  
C20                                     -2777.010          41.000  
G 3  24488985.311   128690484.142        3333.947          39.000  
C 9  35922329.348   187057007.778         473.694          44.000  
C 6  36404421.654   189567388.523         -82.211          43.000  
C 7  36259780.891   188814194.449         762.602          44.000  
C 3  37513752.883   195343957.083         454.390          39.000  
G26  23287913.671   122378884.958        4019.969          39.000  
C 1  37899056.343   197350333.246         471.189          38.000  
C10  37470759.647   195120088.977        1129.657          40.000  
C 2  38394083.701   199928067.9362        394.610          38.000  
C 5  40034040.122   208467751.7272        390.047          34.000  
G 1  25522704.939   134122730.637       -1397.629          34.000  
G22  23378149.209   122852996.204        2346.029          40.000  
G 4  21843714.970   114789567.048        3739.386          43.000  
C 4  39073610.632   203466540.949         447.285          37.000  
C19  23623786.022   123015250.459        -435.646          47.000  
> 2017 12 19  9 17 13.0002584  0 23                     
G29  23939559.194   125803194.119        2925.738          39.000  
G10  23114601.468   121468060.398       -3174.728          40.000  
G12  23689333.934   124488301.482       -2973.395          39.000  
G14  20512859.544   107795796.016        1274.654          44.000  
G25  21152141.290   111155224.535       -1225.766          44.000  
G31  20642012.401   108474496.902        1361.467          47.000  
G32  20473467.544   107588782.054        -179.524          48.000  
C20                                     -2777.155          40.000  
G 3  24488350.926   128687150.297        3333.523          39.000  
C 9  35922238.424   187056534.118         473.444          43.000  
C 6  36404437.254   189567470.556         -82.131          42.000  
C 7  36259634.239   188813431.674         762.547          42.000  
C 3  37513665.754   195343502.708         454.073          38.000  
G26  23287148.697   122374864.895        4020.051          39.000  
C 1  37898966.274   197349862.161         470.868          37.000  
C10  37470542.907   195118959.285        1129.629          39.000  
C 2  38394007.863   199927673.2262        394.721          36.000  
C 5  40033965.200   208467362.4113        390.743          32.000  
G 1  25522970.645   134124128.746       -1398.553          34.000  
G22  23377702.990   122850650.507        2345.284          40.000  
G 4  21843003.228   114785827.911        3738.780          43.000  
C 4  39073524.795   203466093.753         447.164          36.000  
C19  23623869.669   123015686.219        -436.251          45.000  
> 2017 12 19  9 17 14.0002584  0 23                     
G29  23939002.392   125800268.293        2925.659          39.000  
G10  23115205.655   121471234.761       -3174.822          40.000  
G12  23689899.539   124491274.926       -2973.887          39.000  
G14  20512617.247   107794521.129        1274.453          44.000  
G25  21152374.731   111156450.481       -1226.291          44.000  
G31  20641753.291   108473135.465        1360.902          47.000  
G32  20473501.817   107588961.654        -179.953          48.000  
C20                                     -2777.317          40.000  
G 3  24487716.575   128683816.750        3332.961          39.000  
C 9  35922147.368   187056060.501         473.273          43.000  
C 6  36404453.273   189567552.659         -82.114          42.000  
C 7  36259487.718   188812668.937         762.426          42.000  
C 3  37513578.704   195343048.279         453.820          38.000  
G26  23286383.653   122370845.011        4020.013          38.000  
C 1  37898875.760   197349390.996         471.061          37.000  
C10  37470325.791   195117829.669        1129.523          39.000  
C 2  38393931.876   199927278.4932        394.536          37.000  
C 5  40033890.155   208466971.0962        390.545          32.000  
G 1  25523236.700   134125527.101       -1398.693          34.000  
G22  23377256.526   122848305.240        2344.888          40.000  
G 4  21842291.504   114782089.133        3738.074          43.000  
C 4  39073438.974   203465646.513         446.909          36.000  
C19  23623953.587   123016122.471        -436.710          45.000  
> 2017 12 19  9 17 15.0002584  0 23                     
G29  23938445.914   125797342.697        2925.738          39.000  
G10  23115809.729   121474409.279       -3174.950          40.000  
G12  23690465.537   124494248.619       -2974.049          39.000  
G14  20512374.890   107793246.576        1274.161          44.000  
G25  21152608.206   111157677.007       -1226.947          44.000  
G31  20641493.963   108471774.335        1360.888          47.000  
G32  20473536.010   107589141.697        -180.428          48.000  
G 3  24487082.147   128680483.558        3332.764          39.000  
C 9  35922056.566   187055586.954         473.285          43.000  
C 6  36404468.917   189567634.880         -82.349          42.000  
C 7  36259341.093   188811906.277         762.506          42.000  
C 3  37513491.112   195342593.806         454.333          38.000  
G26  23285618.776   122366825.328        4019.490          38.000  
C 1  37898785.036   197348919.828         470.917          38.000  
C10  37470108.885   195116700.105        1129.071          39.000  
C 2  38393856.055   199926883.7242        394.447          37.000  
C 5  40033815.050   208466580.6702        390.894          32.000  
G 1  25523502.868   134126925.753       -1399.175          33.000  
G22  23376810.507   122845960.424        2344.448          40.000  
C20                                     -2777.516          39.000  
G 4  21841579.989   114778350.697        3737.938          43.000  
C 4  39073353.102   203465199.221         447.192          36.000  
C19  23624037.488   123016559.247        -437.216          45.000  
> 2017 12 19  9 17 16.0002584  0 23                     
G29  23937889.461   125794417.315        2925.043          39.000  
G10  23116413.891   121477583.909       -3174.754          40.000  
G12  23691031.369   124497222.525       -2974.289          39.000  
G14  20512132.236   107791972.322        1273.861          44.000  
G25  21152841.760   111158904.079       -1227.563          44.000  
G31  20641235.142   108470413.503        1360.674          47.000  
G32  20473570.239   107589322.131        -180.598          48.000  
C20                                     -2777.633          39.000  
G 3  24486447.971   128677150.648        3333.043          38.000  
C 9  35921965.842   187055113.471         473.480          43.000  
C 6  36404484.928   189567717.156         -82.283          42.000  
C 7  36259194.843   188811143.653         762.460          42.000  
C 3  37513403.949   195342139.292         454.419          38.000  
G26  23284853.994   122362805.809        4019.158          38.000  
C 1  37898694.478   197348448.594         471.400          37.000  
C10  37469891.944   195115570.562        1129.622          39.000  
C 2  38393780.120   199926488.345         394.913          37.000  
C 5  40033740.040   208466189.2753        390.222          32.000  
G 1  25523769.053   134128324.722       -1399.188          33.000  
G22  23376364.166   122843616.048        2344.150          40.000  
G 4  21840868.482   114774612.599        3737.784          43.000  
C 4  39073267.325   203464751.944         446.963          36.000  
C19  23624121.537   123016996.492        -437.601          45.000  
> 2017 12 19  9 17 17.0002584  0 23                     
G29  23937332.904   125791492.244        2925.232          39.000  
G10  23117017.860   121480758.805       -3175.115          40.000  
G12  23691597.262   124500196.780       -2974.175          39.000  
G14  20511889.730   107790698.491        1273.692          44.000  
G25  21153075.357   111160131.807       -1227.938          44.000  
G31  20640976.364   108469053.089        1360.325          47.000  
G32  20473604.476   107589503.100        -181.038          48.000  
G 3  24485813.498   128673818.191        3332.111          38.000  
C 9  35921874.726   187054640.165         473.236          43.000  
C 6  36404500.598   189567799.627         -82.418          42.000  
C 7  36259048.270   188810381.181         762.536          42.000  
C 3  37513316.785   195341684.831         454.585          38.000  
G26  23284088.959   122358786.581        4019.163          39.000  
C 1  37898603.964   197347977.425         471.313          37.000  
C10  37469675.055   195114441.204        1129.600          39.000  
C 2  38393704.342   199926093.580         394.744          36.000  
C 5  40033665.082   208465798.9042        390.749          32.000  
G 1  25524035.134   134129724.102       -1399.162          34.000  
G22  23375918.060   122841272.232        2343.560          40.000  
C20                                     -2777.681          40.000  
G 4  21840157.194   114770874.957        3737.597          43.000  
C 4  39073181.331   203464308.1653        447.280          36.000  
C19  23624205.804   123017434.352        -438.076          45.000  
> 2017 12 19  9 17 18.0002584  0 23                     
G29  23936776.600   125788567.532        2924.347          39.000  
G10  23117622.353   121483933.936       -3175.274          40.000  
G12  23692163.155   124503171.407       -2974.884          39.000  
G14  20511647.390   107789425.107        1273.028          44.000  
G25  21153309.103   111161360.233       -1228.948          44.000  
G31  20640717.577   108467693.108        1359.655          47.000  
G32  20473639.028   107589684.610        -181.817          48.000  
C20                                     -2778.156          40.000  
G 3  24485179.322   128670486.167        3331.844          38.000  
C 9  35921784.029   187054167.042         472.974          43.000  
C 6  36404516.373   189567882.307         -82.887          42.000  
C 7  36258901.845   188809618.896         762.262          42.000  
C 3  37513229.630   195341230.452         454.245          38.000  
G26  23283324.238   122354767.656        4018.490          39.000  
C 1  37898513.633   197347506.343         470.914          37.000  
C10  37469458.114   195113312.018        1129.071          39.000  
C 2  38393628.731   199925698.870         394.634          36.000  
C 5  40033590.343   208465409.5992        390.422          32.000  
G 1  25524301.364   134131123.908       -1399.918          33.000  
G22  23375472.137   122838928.995        2342.975          40.000  
G 4  21839446.098   114767137.808        3736.635          43.000  
C 4  39073095.545   203463860.9872        447.426          36.000  
C19  23624290.027   123017872.828        -438.739          45.000  
> 2017 12 19  9 17 19.0002584  0 23                     
G29  23936219.973   125785643.135        2923.865          39.000  
G10  23118226.750   121487109.324       -3175.897          40.000  
G12  23692729.677   124506146.373       -2975.525          39.000  
G14  20511405.321   107788152.134        1272.321          44.000  
G25  21153542.979   111162589.326       -1229.869          44.000  
G31  20640458.747   108466333.539        1358.979          47.000  
G32  20473673.815   107589866.638        -182.690          48.000  
G 3  24484545.051   128667154.561        3331.184          38.000  
C 9  35921693.174   187053694.072         472.638          43.000  
C 6  36404532.253   189567965.168         -83.302          42.000  
C 7  36258755.307   188808856.768         761.461          42.000  
C 3  37513142.361   195340776.161         453.421          38.000  
G26  23282559.805   122350748.986        4018.226          39.000  
C 1  37898422.961   197347035.323         470.526          37.000  
C10  37469241.470   195112183.001        1128.634          39.000  
C 2  38393552.979   199925304.232         394.671          36.000  
C 5  40033515.368   208465019.3852        389.315          32.000  
G 1  25524567.741   134132524.121       -1400.966          33.000  
G22  23375026.467   122836586.302        2342.058          40.000  
C20                                     -2778.517          40.000  
G 4  21838735.045   114763401.097        3736.119          43.000  
C 4  39073009.490   203463413.8873        446.267          35.000  
C19  23624374.225   123018311.918        -439.808          45.000  
> 2017 12 19  9 17 20.0002584  0 23                     
G29  23935663.529   125782719.163        2923.675          38.000  
G10  23118830.964   121490285.063       -3175.910          40.000  
G12  23693295.762   124509121.778       -2975.186          39.000  
G14  20511163.042   107786879.683        1272.444          44.000  
G25  21153777.135   111163819.177       -1230.044          44.000  
G31  20640200.012   108464974.481        1358.929          47.000  
G32  20473708.392   107590049.291        -182.862          48.000  
C20                                     -2778.650          39.000  
G 3  24483910.831   128663823.508        3330.814          38.000  
C 9  35921602.459   187053221.377         472.668          43.000  
C 6  36404548.037   189568048.319         -83.278          42.000  
C 7  36258609.048   188808094.895         761.932          42.000  
C 3  37513055.084   195340321.971         454.559          38.000  
G26  23281795.241   122346730.747        4017.758          39.000  
C 1  37898332.491   197346564.459         470.801          37.000  
C10  37469024.668   195111054.206        1128.516          38.000  
C 2  38393477.411   199924909.778         394.080          36.000  
C 5  40033440.210   208464629.2632        390.439          32.000  
G 1  25524834.450   134133924.809       -1401.027          33.000  
G22  23374580.753   122834244.274        2341.752          40.000  
G 4  21838024.280   114759664.945        3735.976          43.000  
C 4  39072923.600   203462966.8792        447.174          35.000  
C19  23624458.684   123018751.698        -440.089          45.000  
> 2017 12 19  9 17 21.0002584  0 23                     
G29  23935106.919   125779795.251        2923.224          38.000  
G10  23119435.230   121493460.761       -3175.942          40.000  
G12  23693862.013   124512097.299       -2975.920          39.000  
G14  20510920.781   107785607.407        1271.945          44.000  
G25  21154011.003   111165049.449       -1230.746          44.000  
G31  20639941.444   108463615.582        1358.449          47.000  
G32  20473743.493   107590232.220        -183.539          48.000  
G 3  24483276.638   128660492.601        3330.406          37.000  
C 9  35921511.561   187052748.603         472.534          43.000  
C 6  36404564.353   189568131.398         -83.180          42.000  
C 7  36258462.632   188807332.921         761.601          42.000  
C 3  37512967.850   195339867.651         454.173          37.000  
G26  23281030.904   122342712.505        4017.856          39.000  
C 1  37898242.142   197346093.417         470.370          37.000  
C10  37468807.963   195109925.327        1128.286          38.000  
C 2  38393401.616   199924515.112         394.376          36.000  
C 5  40033365.384   208464239.0383        389.815          32.000  
G 1  25525101.072   134135325.698       -1401.568          33.000  
G22  23374135.258   122831902.553        2341.053          40.000  
C20                                     -2779.033          39.000  
G 4  21837313.445   114755928.998        3735.463          43.000  
C 4  39072837.605   203462519.7512        446.585          35.000  
C19  23624543.125   123019191.829        -440.635          45.000  
> 2017 12 19  9 17 22.0002584  0 23                     
G29  23934550.484   125776871.718        2923.511          38.000  
G10  23120039.627   121496636.776       -3175.904          40.000  
G12  23694428.333   124515073.208       -2975.903          39.000  
G14  20510678.956   107784335.609        1271.611          44.000  
G25  21154245.316   111166280.445       -1231.208          44.000  
G31  20639683.076   108462257.151        1358.244          47.000  
G32  20473778.341   107590415.711        -183.624          48.000  
C20                                     -2778.597          39.000  
G 3  24482642.820   128657162.157        3330.648          37.000  
C 9  35921420.863   187052276.049         472.626          43.000  
C 6  36404580.355   189568214.712         -82.892          42.000  
C 7  36258316.303   188806571.140         761.946          42.000  
C 3  37512881.035   195339413.434         454.129          38.000  
G26  23280266.166   122338694.595        4017.949          39.000  
C 1  37898151.515   197345622.463         471.239          37.000  
C10  37468591.161   195108796.677        1128.733          39.000  
C 2  38393325.734   199924120.569         394.224          36.000  
C 5  40033290.688   208463849.8413        390.577          32.000  
G 1  25525367.572   134136727.015       -1401.756          33.000  
G22  23373689.501   122829561.420        2340.886          40.000  
G 4  21836602.654   114752193.564        3735.288          43.000  
C 4  39072751.759   203462072.6872        447.124          35.000  
C19  23624627.707   123019632.612        -440.980          45.000  
> 2017 12 19  9 17 23.0002584  0 23                     
G29  23933994.215   125773948.505        2922.760          39.000  
G10  23120644.155   121499812.998       -3176.450          40.000  
G12  23694994.802   124518049.424       -2976.398          39.000  
G14  20510436.947   107783064.200        1270.894          44.000  
G25  21154479.402   111167512.083       -1232.255          44.000  
G31  20639424.394   108460899.111        1357.552          47.000  
G32  20473813.251   107590599.705        -184.526          48.000  
C20                                     -2779.569          39.000  
G 3  24482009.124   128653832.175        3329.047          37.000  
C 9  35921330.279   187051803.647         472.119          43.000  
C 6  36404596.531   189568298.241         -84.127          42.000  
C 7  36258169.991   188805809.506         761.325          42.000  
C 3  37512793.819   195338959.253         453.232          38.000  
G26  23279501.549   122334676.973        4017.004          38.000  
C 1  37898061.297   197345151.583         470.480          37.000  
C10  37468374.499   195107668.173        1127.842          39.000  
C 2  38393249.930   199923726.025         394.693          36.000  
C 5  40033215.800   208463459.7882        389.388          32.000  
G 1  25525634.621   134138128.743       -1402.206          33.000  
G22  23373244.285   122827220.821        2340.109          40.000  
G 4  21835891.994   114748458.560        3734.707          43.000  
C 4  39072665.851   203461625.6862        446.984          35.000  
C19  23624712.733   123020073.982        -441.997          45.000  
> 2017 12 19  9 17 24.0002584  0 23                     
G29  23933437.972   125771025.669        2922.766          39.000  
G10  23121248.544   121502989.517       -3176.502          40.000  
G12  23695561.009   124521026.062       -2976.870          39.000  
G14  20510195.070   107781793.268        1270.750          44.000  
G25  21154713.575   111168744.445       -1232.575          44.000  
G31  20639165.947   108459541.544        1357.279          47.000  
G32  20473848.465   107590784.290        -185.020          48.000  
C20                                     -2779.229          40.000  
G 3  24481375.280   128650502.600        3329.729          37.000  
C 9  35921239.346   187051331.472         471.954          43.000  
C 6  36404612.925   189568381.971         -83.955          42.000  
C 7  36258023.846   188805048.086         761.466          42.000  
C 3  37512706.612   195338505.131         454.110          38.000  
G26  23278736.907   122330659.683        4017.086          39.000  
C 1  37897971.315   197344680.811         470.468          37.000  
C10  37468157.977   195106539.843        1128.401          39.000  
C 2  38393174.187   199923331.634         394.551          37.000  
C 5  40033140.843   208463069.7672        389.972          32.000  
G 1  25525901.418   134139530.920       -1401.981          33.000  
G22  23372798.938   122824880.835        2339.760          40.000  
G 4  21835181.509   114744724.078        3734.245          43.000  
C 4  39072580.118   203461178.8042        446.867          35.000  
C19  23624797.707   123020516.012        -442.540          45.000  
> 2017 12 19  9 17 25.0002584  0 23                     
G29  23932881.833   125768103.117        2922.070          39.000  
G10  23121852.845   121506166.250       -3176.827          40.000  
G12  23696127.505   124524002.980       -2976.923          39.000  
G14  20509952.974   107780522.726        1270.230          44.000  
G25  21154948.167   111169977.439       -1233.496          44.000  
G31  20638907.902   108458184.340        1356.906          47.000  
G32  20473883.741   107590969.357        -185.706          48.000  
G 3  24480742.003   128647173.495        3328.802          38.000  
C 9  35921148.858   187050859.406         471.912          43.000  
C 6  36404628.709   189568465.840         -84.053          42.000  
C 7  36257877.596   188804286.792         761.119          42.000  
C 3  37512619.143   195338051.093         453.866          38.000  
G26  23277972.291   122326642.638        4016.868          39.000  
C 1  37897880.940   197344210.007         470.895          37.000  
C10  37467941.027   195105411.644        1128.077          39.000  
C 2  38393098.541   199922937.250         394.557          36.000  
C 5  40033066.112   208462679.7593        390.461          32.000  
G 1  25526168.546   134140933.519       -1403.496          33.000  
G22  23372353.783   122822541.367        2339.135          40.000  
C20                                     -2780.052          39.000  
G 4  21834470.988   114740990.009        3733.590          43.000  
C 4  39072494.377   203460731.9452        447.017          35.000  
C19  23624882.742   123020958.587        -443.041          45.000  
> 2017 12 19  9 17 26.0002584  0 23                     
G29  23932325.651   125765180.810        2922.296          39.000  
G10  23122457.530   121509343.153       -3177.341          40.000  
G12  23696693.982   124526980.192       -2977.184          39.000  
G14  20509711.402   107779252.529        1270.216          44.000  
G25  21155182.794   111171211.038       -1233.920          44.000  
G31  20638649.709   108456827.487        1356.725          47.000  
G32  20473919.042   107591154.856        -185.528          48.000  
G 3  24480108.499   128643844.687        3328.552          38.000  
C 9  35921058.187   187050387.450         472.028          43.000  
C 6  36404645.357   189568549.851         -83.848          42.000  
C 7  36257731.424   188803525.572         761.243          42.000  
C 3  37512531.804   195337597.015         454.112          38.000  
G26  23277207.928   122322625.814        4016.417          39.000  
C 1  37897790.531   197343739.232         471.465          37.000  
C10  37467724.287   195104283.574        1127.646          39.000  
C 2  38393022.885   199922542.873         394.569          36.000  
C 5  40032991.321   208462290.7992        389.844          32.000  
G 1  25526435.194   134142336.387       -1403.511          33.000  
G22  23371908.479   122820202.382        2338.936          40.000  
C20                                     -2779.951          39.000  
G 4  21833760.354   114737256.317        3733.652          43.000  
C 4  39072408.539   203460284.572         446.974          36.000  
C19  23624967.838   123021401.704        -443.145          45.000  
> 2017 12 19  9 17 27.0002584  0 23                     
G29  23931769.504   125762258.772        2921.795          39.000  
G10  23123061.996   121512520.199       -3176.906          40.000  
G12  23697260.347   124529957.676       -2977.650          39.000  
G14  20509469.743   107777982.690        1269.818          44.000  
G25  21155417.394   111172445.221       -1234.459          44.000  
G31  20638391.332   108455470.973        1356.544          47.000  
G32  20473954.266   107591340.816        -186.035          48.000  
G 3  24479475.309   128640516.240        3328.771          38.000  
C 9  35920967.690   187049915.584         471.875          43.000  
C 6  36404661.367   189568633.966         -84.236          42.000  
C 7  36257585.636   188802764.441         761.137          42.000  
C 3  37512444.684   195337142.935         454.526          38.000  
G26  23276443.582   122318609.178        4016.820          39.000  
C 1  37897700.226   197343268.497         470.934          37.000  
C10  37467507.625   195103155.549        1127.930          39.000  
C 2  38392947.291   199922148.496         394.383          36.000  
C 5  40032916.564   208461901.8293        389.582          32.000  
G 1  25526702.164   134143739.601       -1403.519          33.000  
G22  23371463.420   122817863.875        2338.345          40.000  
C20                                     -2779.820          40.000  
G 4  21833050.008   114733523.010        3733.242          43.000  
C 4  39072322.815   203459837.683         447.326          36.000  
C19  23625052.968   123021845.357        -443.768          45.000  
> 2017 12 19  9 17 28.0002584  0 23                     
G29  23931213.514   125759336.807        2922.156          39.000  
G10  23123666.228   121515697.279       -3177.234          40.000  
G12  23697827.025   124532935.249       -2977.564          39.000  
G14  20509228.101   107776713.033        1269.666          44.000  
G25  21155652.484   111173679.836       -1234.685          44.000  
G31  20638133.235   108454114.646        1356.280          47.000  
G32  20473989.786   107591527.065        -186.292          48.000  
G 3  24478842.075   128637188.028        3328.193          38.000  
C 9  35920877.176   187049443.649         472.015          43.000  
C 6  36404677.770   189568718.027         -83.972          42.000  
C 7  36257439.578   188802003.231         761.268          42.000  
C 3  37512357.293   195336688.698         454.688          38.000  
G26  23275679.245   122314592.620        4016.680          39.000  
C 1  37897609.703   197342797.551         470.925          37.000  
C10  37467290.928   195102027.476        1127.828          39.000  
C 2  38392871.688   199921753.965         394.478          36.000  
C 5  40032841.685   208461511.6243        390.671          32.000  
G 1  25526969.275   134145142.972       -1403.102          33.000  
G22  23371018.466   122815525.703        2337.972          40.000  
C20                                     -2780.259          40.000  
G 4  21832339.636   114729789.939        3733.029          43.000  
C 4  39072237.161   203459390.649         447.272          36.000  
C19  23625138.230   123022289.380        -444.109          45.000  
> 2017 12 19  9 17 29.0002584  0 23                     
G29  23930657.742   125756415.152        2921.301          39.000  
G10  23124270.703   121518874.554       -3177.623          39.000  
G12  23698393.721   124535913.132       -2977.998          39.000  
G14  20508986.668   107775443.763        1268.727          44.000  
G25  21155887.538   111174915.095       -1235.839          44.000  
G31  20637875.216   108452758.689        1355.588          47.000  
G32  20474025.323   107591713.812        -187.179          48.000  
G 3  24478209.051   128633860.175        3327.361          38.000  
C 9  35920786.487   187048971.838         471.417          43.000  
C 6  36404693.432   189568802.276         -84.637          42.000  
C 7  36257293.397   188801242.137         760.675          42.000  
C 3  37512270.164   195336234.479         454.263          38.000  
G26  23274915.065   122310576.308        4016.086          38.000  
C 1  37897519.180   197342326.619         470.761          37.000  
C10  37467074.214   195100899.448        1128.127          39.000  
C 2  38392795.736   199921359.413         394.333          36.000  
C 5  40032766.797   208461121.4662        390.426          32.000  
G 1  25527236.246   134146546.782       -1404.318          33.000  
G22  23370574.061   122813188.032        2337.238          40.000  
C20                                     -2780.890          39.000  
G 4  21831629.238   114726057.279        3732.295          43.000  
C 4  39072151.436   203458943.619         447.195          36.000  
C19  23625223.719   123022733.971        -445.071          45.000  
> 2017 12 19  9 17 30.0002584  0 23                     
G29  23930102.153   125753493.882        2920.971          39.000  
G10  23124875.589   121522052.116       -3177.246          39.000  
G12  23698960.835   124538891.436       -2978.184          39.000  
G14  20508745.376   107774174.969        1268.633          44.000  
G25  21156122.767   111176151.090       -1236.493          44.000  
G31  20637617.389   108451403.217        1355.297          47.000  
G32  20474060.904   107591901.146        -187.593          48.000  
C20                                     -2780.597          39.000  
G 3  24477576.289   128630532.832        3327.151          39.000  
C 9  35920696.104   187048500.269         471.625          43.000  
C 6  36404709.983   189568886.747         -84.515          42.000  
C 7  36257147.199   188800481.276         760.630          42.000  
C 3  37512182.835   195335780.394         454.014          38.000  
G26  23274150.894   122306560.339        4015.997          38.000  
C 1  37897428.718   197341855.840         470.671          37.000  
C10  37466857.901   195099771.700        1127.962          39.000  
C 2  38392719.993   199920964.952         394.944          36.000  
C 5  40032691.805   208460731.4323        390.447          32.000  
G 1  25527503.531   134147950.997       -1404.362          33.000  
G22  23370129.220   122810850.982        2336.982          40.000  
G 4  21830918.961   114722325.135        3732.127          43.000  
C 4  39072065.477   203458496.725         446.961          36.000  
C19  23625309.478   123023179.223        -445.330          45.000  
> 2017 12 19  9 17 31.0002584  0 23                     
G29  23929546.590   125750573.079        2920.282          39.000  
G10  23125480.361   121525230.071       -3178.139          40.000  
G12  23699527.802   124541870.216       -2978.993          39.000  
G14  20508504.091   107772906.747        1267.759          44.000  
G25  21156358.214   111177387.864       -1237.088          44.000  
G31  20637359.675   108450048.291        1354.552          47.000  
G32  20474096.625   107592089.128        -188.393          48.000  
C20                                     -2781.226          39.000  
G 3  24476943.561   128627206.048        3326.205          39.000  
C 9  35920605.589   187048029.011         471.240          43.000  
C 6  36404726.038   189568971.553         -85.143          42.000  
C 7  36257001.115   188799720.707         760.168          42.000  
C 3  37512095.837   195335326.507         453.593          38.000  
G26  23273386.775   122302544.804        4014.976          38.000  
C 1  37897338.238   197341385.227         470.702          37.000  
C10  37466641.387   195098644.254        1127.303          39.000  
C 2  38392644.041   199920570.752         394.247          36.000  
C 5  40032616.856   208460340.6762        389.447          32.000  
G 1  25527770.868   134149355.763       -1404.981          33.000  
G22  23369684.571   122808514.639        2335.973          40.000  
G 4  21830208.903   114718593.599        3731.264          43.000  
C 4  39071979.656   203458050.040         446.786          35.000  
C19  23625395.246   123023625.216        -446.382          45.000  
> 2017 12 19  9 17 32.0002584  0 23                     
G29  23928990.801   125747652.438        2920.905          39.000  
G10  23126085.063   121528408.133       -3177.983          40.000  
G12  23700094.716   124544849.215       -2979.083          39.000  
G14  20508262.877   107771638.795        1268.013          44.000  
G25  21156593.748   111178625.186       -1237.046          44.000  
G31  20637102.075   108448693.632        1354.706          47.000  
G32  20474132.302   107592277.507        -188.458          48.000  
C20                                     -2780.801          39.000  
G 3  24476310.686   128623879.550        3326.765          39.000  
C 9  35920515.215   187047557.790         471.271          43.000  
C 6  36404742.066   189569056.415         -84.728          42.000  
C 7  36256855.013   188798960.131         760.791          42.000  
C 3  37512008.839   195334872.520         454.249          38.000  
G26  23272622.543   122298529.404        4015.726          39.000  
C 1  37897248.038   197340914.587         470.623          37.000  
C10  37466424.970   195097516.824        1127.871          39.000  
C 2  38392568.368   199920176.456         394.554          36.000  
C 5  40032541.899   208459950.7572        390.073          32.000  
G 1  25528038.171   134150760.819       -1405.056          33.000  
G22  23369239.940   122806178.709        2335.885          40.000  
G 4  21829498.688   114714862.376        3731.375          43.000  
C 4  39071893.749   203457603.267         447.105          36.000  
C19  23625480.752   123024071.679        -446.489          45.000  
> 2017 12 19  9 17 33.0002584  0 23                     
G29  23928435.046   125744732.125        2920.319          39.000  
G10  23126690.010   121531586.403       -3178.303          40.000  
G12  23700661.699   124547828.508       -2979.370          39.000  
G14  20508021.671   107770371.245        1267.351          44.000  
G25  21156829.527   111179863.158       -1238.296          44.000  
G31  20636844.571   108447339.369        1354.088          47.000  
G32  20474168.441   107592466.371        -189.101          48.000  
C20                                     -2781.638          39.000  
G 3  24475678.010   128620553.468        3325.923          39.000  
C 9  35920424.543   187047086.690         471.204          43.000  
C 6  36404758.547   189569141.433         -85.144          42.000  
C 7  36256708.728   188798199.704         760.222          42.000  
C 3  37511921.657   195334418.583         453.901          38.000  
G26  23271858.607   122294514.274        4015.220          39.000  
C 1  37897157.603   197340443.949         470.593          37.000  
C10  37466208.386   195096389.519        1127.083          39.000  
C 2  38392492.800   199919782.192         394.396          37.000  
C 5  40032467.186   208459561.8923        389.714          32.000  
G 1  25528305.665   134152166.217       -1405.281          33.000  
G22  23368795.491   122803843.289        2335.370          40.000  
G 4  21828788.517   114711131.571        3730.714          43.000  
C 4  39071807.938   203457156.526         446.874          35.000  
C19  23625566.598   123024518.714        -447.298          45.000  
> 2017 12 19  9 17 34.0002584  0 23                     
G29  23927879.589   125741812.108        2919.556          39.000  
G10  23127295.088   121534764.877       -3178.547          40.000  
G12  23701228.849   124550808.136       -2979.945          39.000  
G14  20507780.413   107769104.089        1266.992          44.000  
G25  21157065.288   111181101.758       -1239.084          44.000  
G31  20636587.032   108445985.492        1353.538          47.000  
G32  20474204.371   107592655.747        -189.636          48.000  
C20                                     -2781.863          39.000  
G 3  24475045.405   128617227.763        3325.812          39.000  
C 9  35920334.256   187046615.757         470.801          43.000  
C 6  36404774.724   189569226.616         -85.305          42.000  
C 7  36256563.001   188797439.407         760.155          42.000  
C 3  37511834.302   195333964.691         453.960          38.000  
G26  23271094.881   122290499.397        4014.562          39.000  
C 1  37897067.071   197339973.382         470.144          37.000  
C10  37465991.995   195095262.348        1126.980          39.000  
C 2  38392417.144   199919387.989         393.603          37.000  
C 5  40032392.473   208459172.0923        389.534          32.000  
G 1  25528572.915   134153572.047       -1406.123          33.000  
G22  23368350.991   122801508.427        2334.323          40.000  
G 4  21828078.528   114707401.203        3730.225          43.000  
C 4  39071722.178   203456709.830         446.326          36.000  
C19  23625652.610   123024966.327        -448.025          45.000  
> 2017 12 19  9 17 35.0002584  0 23                     
G29  23927324.009   125738892.356        2919.800          39.000  
G10  23127899.930   121537943.568       -3178.968          40.000  
G12  23701795.972   124553788.040       -2979.969          39.000  
G14  20507539.347   107767837.310        1266.859          44.000  
G25  21157300.892   111182340.975       -1239.327          44.000  
G31  20636329.441   108444631.975        1353.559          47.000  
G32  20474240.571   107592845.586        -189.812          48.000  
C20                                     -2781.300          39.000  
G 3  24474412.756   128613902.468        3325.286          39.000  
C 9  35920243.864   187046144.930         470.844          43.000  
C 6  36404791.581   189569311.921         -84.957          42.000  
C 7  36256417.012   188796679.217         760.485          42.000  
C 3  37511747.103   195333510.794         454.121          38.000  
G26  23270330.928   122286484.759        4014.848          38.000  
C 1  37896976.714   197339502.783         470.575          37.000  
C10  37465775.473   195094135.279        1127.482          39.000  
C 2  38392341.210   199918993.758         394.541          36.000  
C 5  40032317.664   208458783.2482        389.722          32.000  
G 1  25528840.401   134154978.187       -1405.399          33.000  
G22  23367907.240   122799174.052        2334.444          40.000  
G 4  21827368.540   114703671.244        3730.038          43.000  
C 4  39071636.411   203456263.099         447.628          35.000  
C19  23625738.675   123025414.489        -448.125          45.000  
> 2017 12 19  9 17 36.0002584  0 23                     
G29  23926768.149   125735972.931        2919.293          39.000  
G10  23128505.025   121541122.462       -3178.945          40.000  
G12  23702363.043   124556768.270       -2979.997          39.000  
G14  20507298.194   107766570.926        1266.432          44.000  
G25  21157536.662   111183580.834       -1239.944          44.000  
G31  20636071.849   108443278.851        1353.126          47.000  
G32  20474276.824   107593035.929        -190.430          48.000  
C20                                     -2781.847          39.000  
G 3  24473780.448   128610577.551        3325.201          39.000  
C 9  35920153.437   187045674.247         470.917          43.000  
C 6  36404807.652   189569397.416         -85.426          42.000  
C 7  36256271.399   188795919.161         760.340          42.000  
C 3  37511660.052   195333056.944         454.195          38.000  
G26  23269567.193   122282470.383        4014.421          39.000  
C 1  37896886.313   197339032.240         470.744          37.000  
C10  37465559.081   195093008.357        1127.098          39.000  
C 2  38392265.301   199918599.555         394.886          36.000  
C 5  40032242.645   208458392.4622        390.150          32.000  
G 1  25529108.462   134156384.743       -1406.484          33.000  
G22  23367462.984   122796840.238        2333.432          40.000  
G 4  21826658.962   114699941.717        3729.460          43.000  
C 4  39071550.503   203455816.448         446.743          36.000  
C19  23625824.818   123025863.233        -448.766          45.000  
> 2017 12 19  9 17 37.0002584  0 23                     
G29  23926212.639   125733053.688        2919.080          39.000  
G10  23129109.579   121544301.443       -3179.120          40.000  
G12  23702930.184   124559748.747       -2980.688          39.000  
G14  20507057.163   107765304.839        1265.813          44.000  
G25  21157772.973   111184821.249       -1240.906          44.000  
G31  20635814.258   108441926.014        1352.568          47.000  
G32  20474313.138   107593226.678        -191.275          48.000  
C20                                     -2782.388          38.000  
G 3  24473147.842   128607252.962        3324.144          39.000  
C 9  35920063.097   187045203.600         470.441          41.000  
C 6  36404824.038   189569482.971         -85.731          41.000  
C 7  36256125.332   188795159.147         759.522          40.000  
C 3  37511572.740   195332603.035         453.493          37.000  
G26  23268803.161   122278456.178        4013.677          38.000  
C 1  37896795.990   197338561.661         470.346          37.000  
C10  37465342.576   195091881.468        1126.639          38.000  
C 2  38392189.567   199918205.344         394.344          36.000  
C 5  40032167.915   208458002.6653        388.407          31.000  
G 1  25529376.218   134157791.605       -1407.430          33.000  
G22  23367018.754   122794506.820        2332.810          40.000  
G 4  21825949.453   114696212.519        3728.821          43.000  
C 4  39071464.700   203455369.733         446.828          35.000  
C19  23625910.961   123026312.456        -449.672          44.000  
> 2017 12 19  9 17 38.0002584  0 23                     
G29  23925657.242   125730134.613        2918.805          39.000  
G10  23129714.473   121547480.521       -3179.052          40.000  
G12  23703497.054   124562729.369       -2980.923          39.000  
G14  20506816.490   107764039.015        1265.537          44.000  
G25  21158009.057   111186062.144       -1241.197          44.000  
G31  20635556.867   108440573.422        1352.298          47.000  
G32  20474349.487   107593417.765        -191.434          48.000  
C20                                     -2782.394          40.000  
G 3  24472515.228   128603928.611        3324.289          39.000  
C 9  35919972.661   187044732.976         470.306          43.000  
C 6  36404840.267   189569568.536         -85.309          42.000  
C 7  36255979.247   188794399.093         760.063          42.000  
C 3  37511485.489   195332149.014         453.999          37.000  
G26  23268039.417   122274442.083        4013.960          38.000  
C 1  37896705.467   197338090.960         470.373          37.000  
C10  37465126.028   195090754.572        1126.813          38.000  
C 2  38392113.729   199917811.002         394.208          36.000  
C 5  40032092.678   208457612.6802        390.424          32.000  
G 1  25529643.852   134159198.664       -1407.271          33.000  
G22  23366574.873   122792173.793        2332.785          40.000  
G 4  21825240.172   114692483.606        3728.714          43.000  
C 4  39071378.994   203454922.900         447.452          35.000  
C19  23625997.374   123026762.114        -450.027          45.000  
> 2017 12 19  9 17 39.0002584  0 23                     
G29  23925101.872   125727215.993        2918.024          39.000  
G10  23130319.472   121550659.974       -3179.644          40.000  
G12  23704064.431   124565710.471       -2981.435          39.000  
G14  20506575.781   107762773.728        1265.051          44.000  
G25  21158245.394   111187303.847       -1242.137          44.000  
G31  20635299.476   108439221.377        1351.554          47.000  
G32  20474385.984   107593609.512        -192.091          48.000  
C20                                     -2782.924          40.000  
G 3  24471882.527   128600604.822        3323.607          39.000  
C 9  35919882.060   187044262.611         470.233          43.000  
C 6  36404857.002   189569654.435         -86.125          42.000  
C 7  36255833.625   188793639.353         759.362          42.000  
C 3  37511398.229   195331695.178         453.673          38.000  
G26  23267275.491   122270428.406        4013.507          38.000  
C 1  37896615.136   197337620.434         470.434          37.000  
C10  37464909.933   195089627.974        1126.302          38.000  
C 2  38392037.960   199917416.875         393.502          36.000  
C 5  40032017.572   208457219.9433        389.566          32.000  
G 1  25529911.643   134160606.282       -1407.790          33.000  
G22  23366130.904   122789841.451        2332.032          40.000  
G 4  21824530.550   114688755.283        3727.929          43.000  
C 4  39071293.165   203454476.281         446.662          35.000  
C19  23626083.980   123027212.489        -450.640          45.000  
> 2017 12 19  9 17 40.0002584  0 23                     
G29  23924546.196   125724297.771        2917.840          39.000  
G10  23130924.663   121553839.744       -3180.102          39.000  
G12  23704631.746   124568692.004       -2981.806          39.000  
G14  20506335.204   107761508.967        1264.304          44.000  
G25  21158481.513   111188546.298       -1243.128          44.000  
G31  20635042.600   108437869.830        1351.165          47.000  
G32  20474422.429   107593801.878        -192.823          48.000  
C20                                     -2783.277          40.000  
G 3  24471250.253   128597281.559        3323.019          39.000  
C 9  35919791.877   187043792.538         469.708          43.000  
C 6  36404873.457   189569740.593         -86.526          42.000  
C 7  36255687.968   188792879.844         759.411          42.000  
C 3  37511311.083   195331241.483         453.487          38.000  
G26  23266511.703   122266415.115        4012.569          38.000  
C 1  37896524.648   197337150.087         469.947          37.000  
C10  37464693.777   195088501.602        1126.350          39.000  
C 2  38391962.261   199917022.859         393.665          36.000  
C 5  40031942.789   208456830.3063        389.615          32.000  
G 1  25530179.661   134162014.372       -1408.221          34.000  
G22  23365687.520   122787509.761        2331.320          40.000  
G 4  21823820.972   114685027.509        3727.336          43.000  
C 4  39071207.589   203454029.824         445.991          35.000  
C19  23626170.236   123027663.569        -451.446          45.000  
> 2017 12 19  9 17 41.0002584  0 23                     
G29  23923990.834   125721379.789        2918.091          39.000  
G10  23131529.915   121557019.666       -3180.134          40.000  
G12  23705199.088   124571673.801       -2982.076          39.000  
G14  20506094.382   107760244.523        1264.374          44.000  
G25  21158718.182   111189789.317       -1243.136          44.000  
G31  20634785.489   108436518.598        1351.166          47.000  
G32  20474459.258   107593994.652        -192.946          48.000  
C20                                     -2783.037          40.000  
G 3  24470617.988   128593958.648        3322.672          39.000  
C 9  35919701.528   187043322.519         470.093          43.000  
C 6  36404889.948   189569826.832         -86.111          42.000  
C 7  36255541.805   188792120.397         759.445          42.000  
C 3  37511223.919   195330787.782         453.584          38.000  
G26  23265748.186   122262401.987        4013.130          38.000  
C 1  37896434.370   197336677.6703        470.623          37.000  
C10  37464477.464   195087375.295        1126.388          39.000  
C 2  38391886.571   199916627.3063        393.930          36.000  
C 5  40031867.911   208456440.7042        389.608          32.000  
G 1  25530447.487   134163422.788       -1408.999          34.000  
G22  23365244.006   122785178.528        2331.326          40.000  
G 4  21823111.865   114681300.085        3727.518          43.000  
C 4  39071121.873   203453583.310         446.300          35.000  
C19  23626256.946   123028115.150        -451.795          45.000  
> 2017 12 19  9 17 42.0002584  0 23                     
G29  23923435.550   125718461.990        2917.584          39.000  
G10  23132134.783   121560199.660       -3180.064          40.000  
G12  23705766.176   124574655.766       -2982.296          39.000  
G14  20505853.927   107758980.359        1263.872          44.000  
G25  21158954.981   111191032.857       -1243.786          44.000  
G31  20634528.255   108435167.634        1350.670          47.000  
G32  20474495.894   107594187.819        -193.619          48.000  
C20                                     -2783.289          38.000  
G 3  24469985.479   128590635.968        3322.596          39.000  
C 9  35919611.049   187042852.534         469.672          41.000  
C 6  36404906.787   189569913.127         -86.538          40.000  
C 7  36255395.895   188791360.948         759.474          41.000  
C 3  37511136.808   195330333.970         453.892          36.000  
G26  23264984.582   122258389.008        4012.965          38.000  
C 1  37896344.047   197336207.2062        470.071          36.000  
C10  37464261.169   195086248.986        1125.922          37.000  
C 2  38391810.819   199916233.1752        394.341          35.000  
C 5  40031793.110   208456050.9243        389.603          31.000  
G 1  25530715.601   134164831.446       -1408.930          34.000  
G22  23364800.596   122782847.721        2330.573          40.000  
G 4  21822402.636   114677572.980        3726.741          43.000  
C 4  39071035.861   203453136.679         446.828          34.000  
C19  23626343.831   123028567.188        -452.493          44.000  
> 2017 12 19  9 17 43.0002584  0 23                     
G29  23922880.197   125715544.486        2917.401          39.000  
G10  23132740.323   121563379.819       -3180.252          40.000  
G12  23706333.587   124577637.992       -2982.443          39.000  
G14  20505613.219   107757716.524        1263.714          44.000  
G25  21159191.545   111192276.997       -1244.594          44.000  
G31  20634271.248   108433817.004        1350.506          47.000  
G32  20474532.662   107594381.429        -193.843          48.000  
C20                                     -2783.600          39.000  
G 3  24469353.022   128587313.677        3322.281          39.000  
C 9  35919520.919   187042382.632         469.659          42.000  
C 6  36404922.937   189569999.527         -86.437          41.000  
C 7  36255249.933   188790601.603         759.204          41.000  
C 3  37511049.557   195329880.144         453.874          37.000  
G26  23264221.022   122254376.250        4012.799          38.000  
C 1  37896253.585   197335736.6932        471.021          37.000  
C10  37464044.996   195085122.753        1126.207          38.000  
C 2  38391735.068   199915839.0352        394.344          36.000  
C 5  40031718.179   208455661.1773        390.518          31.000  
G 1  25530983.567   134166240.430       -1409.075          34.000  
G22  23364356.933   122780517.380        2330.119          40.000  
G 4  21821693.424   114673846.244        3726.469          43.000  
C 4  39070950.268   203452690.5803        446.244          35.000  
C19  23626430.663   123029019.754        -452.666          45.000  
> 2017 12 19  9 17 44.0002584  0 23                     
G29  23922325.158   125712627.254        2917.053          39.000  
G10  23133345.523   121566560.180       -3180.290          40.000  
G12  23706901.321   124580620.533       -2982.709          39.000  
G14  20505372.746   107756453.075        1263.368          44.000  
G25  21159428.336   111193521.740       -1244.931          44.000  
G31  20634014.556   108432466.738        1350.140          47.000  
G32  20474569.744   107594575.506        -194.139          48.000  
C20                                     -2783.260          40.000  
G 3  24468720.678   128583991.762        3321.958          38.000  
C 9  35919430.919   187041912.839         469.971          43.000  
C 6  36404939.663   189570086.083         -86.639          42.000  
C 7  36255104.381   188789842.361         759.446          43.000  
C 3  37510962.672   195329426.343         453.985          38.000  
G26  23263457.304   122250363.733        4012.254          38.000  
C 1  37896163.542   197335266.2112        470.896          38.000  
C10  37463828.569   195083996.659        1126.019          39.000  
C 2  38391659.482   199915444.9122        394.420          37.000  
C 5  40031643.274   208455271.4662        390.155          33.000  
G 1  25531251.838   134167649.773       -1409.423          34.000  
G22  23363913.427   122778187.538        2330.100          40.000  
G 4  21820984.299   114670119.928        3726.176          43.000  
C 4  39070864.675   203452243.9432        446.737          36.000  
C19  23626517.740   123029472.867        -453.210          46.000  
> 2017 12 19  9 17 45.0002584  0 23                     
G29  23921770.006   125709710.249        2916.803          39.000  
G10  23133950.862   121569740.680       -3180.531          40.000  
G12  23707468.933   124583603.303       -2982.665          39.000  
G14  20505132.317   107755189.954        1263.068          44.000  
G25  21159665.170   111194767.066       -1245.489          44.000  
G31  20633757.654   108431116.798        1349.890          47.000  
G32  20474606.869   107594770.026        -194.690          48.000  
C20                                     -2783.709          40.000  
G 3  24468088.082   128580670.158        3321.892          38.000  
C 9  35919340.640   187041443.147         469.574          43.000  
C 6  36404956.154   189570172.723         -86.667          42.000  
C 7  36254958.689   188789083.179         759.276          42.000  
C 3  37510875.691   195328972.495         454.359          38.000  
G26  23262693.936   122246351.406        4012.238          38.000  
C 1  37896073.229   197334795.7112        470.669          38.000  
C10  37463612.274   195082870.615        1125.990          39.000  
C 2  38391583.897   199915050.7812        393.991          37.000  
C 5  40031568.535   208454881.7033        389.772          33.000  
G 1  25531520.196   134169059.431       -1409.891          34.000  
G22  23363470.121   122775858.183        2329.438          40.000  
G 4  21820275.184   114666393.986        3725.691          43.000  
C 4  39070778.837   203451797.2982        446.859          36.000  
C19  23626604.930   123029926.501        -453.865          46.000  
> 2017 12 19  9 17 46.0002584  0 23                     
G29  23921215.202   125706793.640        2916.394          39.000  
G10  23134556.106   121572921.478       -3181.008          39.000  
G12  23708036.825   124586586.494       -2983.515          39.000  
G14  20504892.123   107753927.326        1262.205          44.000  
G25  21159902.083   111196013.118       -1246.503          44.000  
G31  20633500.734   108429767.332        1349.065          47.000  
G32  20474643.951   107594965.120        -195.645          48.000  
C20                                     -2784.480          40.000  
G 3  24467455.843   128577349.071        3320.895          38.000  
C 9  35919250.458   187040973.665         469.263          43.000  
C 6  36404973.072   189570259.634         -87.330          42.000  
C 7  36254812.875   188788324.214         758.785          42.000  
C 3  37510788.274   195328518.822         453.087          38.000  
G26  23261930.375   122242339.424        4011.526          38.000  
C 1  37895982.871   197334325.3252        470.201          37.000  
C10  37463396.127   195081744.777        1125.574          39.000  
C 2  38391508.215   199914656.7472        393.851          36.000  
C 5  40031493.691   208454492.0562        389.707          32.000  
G 1  25531788.432   134170469.572       -1410.781          34.000  
G22  23363026.572   122773529.446        2328.013          40.000  
G 4  21819566.190   114662668.554        3725.058          43.000  
C 4  39070692.956   203451350.8062        446.434          35.000  
C19  23626692.224   123030380.798        -454.811          45.000  
> 2017 12 19  9 17 47.0002584  0 23                     
G29  23920659.997   125703877.331        2916.846          39.000  
G10  23135161.532   121576102.500       -3180.505          39.000  
G12  23708604.724   124589569.989       -2983.046          39.000  
G14  20504651.938   107752665.084        1262.564          44.000  
G25  21160139.083   111197259.816       -1246.735          44.000  
G31  20633244.181   108428418.245        1349.362          47.000  
G32  20474680.867   107595160.715        -195.420          48.000  
C20                                     -2784.105          36.000  
G 3  24466823.770   128574028.381        3320.898          38.000  
C 9  35919160.327   187040504.318         469.769          40.000  
C 6  36404989.676   189570346.673         -86.628          39.000  
C 7  36254667.026   188787565.361         759.409          39.000  
C 3  37510701.442   195328065.117         454.189          35.000  
G26  23261166.937   122238327.704        4011.873          39.000  
C 1  37895892.558   197333854.9752        470.646          35.000  
C10  37463179.788   195080619.096        1126.007          36.000  
C 2  38391432.333   199914262.7142        394.848          34.000  
C 5  40031418.829   208454102.4423        390.263          31.000  
G 1  25532056.964   134171880.080       -1410.498          33.000  
G22  23362583.563   122771201.225        2328.316          40.000  
G 4  21818857.554   114658943.555        3725.173          43.000  
C 4  39070607.040   203450904.3202        447.082          32.000  
C19  23626779.353   123030835.658        -454.685          43.000  
> 2017 12 19  9 17 48.0002584  0 23                     
G29  23920105.194   125700961.288        2915.662          39.000  
G10  23135766.706   121579283.679       -3181.528          39.000  
G12  23709172.511   124592553.781       -2984.338          39.000  
G14  20504411.946   107751403.199        1261.663          44.000  
G25  21160376.293   111198507.108       -1247.792          43.000  
G31  20632987.541   108427069.517        1348.293          47.000  
G32  20474718.166   107595356.778        -196.592          47.000  
C20                                     -2784.557          39.000  
G 3  24466191.627   128570708.056        3319.777          38.000  
C 9  35919070.223   187040035.094         468.878          42.000  
C 6  36405006.751   189570433.852         -87.651          41.000  
C 7  36254521.290   188786806.655         758.298          41.000  
C 3  37510614.139   195327611.434         453.584          36.000  
G26  23260403.638   122234316.210        4011.271          39.000  
C 1  37895802.078   197333384.633         469.747          36.000  
C10  37462963.745   195079493.516        1125.417          37.000  
C 2  38391356.808   199913868.202         394.299          35.000  
C 5  40031343.846   208453711.8383        388.998          31.000  
G 1  25532325.611   134173290.923       -1410.957          34.000  
G22  23362140.755   122768873.502        2327.145          40.000  
G 4  21818148.822   114655218.942        3724.290          43.000  
C 4  39070521.237   203450457.8602        445.853          34.000  
C19  23626866.866   123031291.073        -456.030          44.000  
> 2017 12 19  9 17 49.0002584  0 23                     
G29  23919550.443   125698045.436        2915.906          39.000  
G10  23136372.202   121582465.002       -3181.499          39.000  
G12  23709740.690   124595537.776       -2984.107          39.000  
G14  20504172.023   107750141.621        1261.431          44.000  
G25  21160613.991   111199754.947       -1247.976          43.000  
G31  20632730.830   108425721.074        1348.289          47.000  
G32  20474755.449   107595553.222        -196.571          47.000  
C20                                     -2784.841          39.000  
G 3  24465559.510   128567388.039        3319.620          37.000  
C 9  35918980.232   187039565.919         469.147          42.000  
C 6  36405023.817   189570521.099         -87.144          42.000  
C 7  36254375.485   188786047.927         758.979          42.000  
C 3  37510527.149   195327157.700         454.021          37.000  
G26  23259640.314   122230304.867        4011.463          38.000  
C 1  37895711.756   197332914.202         470.586          37.000  
C10  37462747.642   195078367.988        1125.367          38.000  
C 2  38391281.275   199913474.144         394.672          36.000  
C 5  40031268.932   208453322.1663        389.843          32.000  
G 1  25532594.178   134174702.061       -1411.087          33.000  
G22  23361697.964   122766546.220        2326.830          40.000  
G 4  21817440.082   114651494.672        3724.089          43.000  
C 4  39070435.757   203450010.811         446.604          35.000  
C19  23626954.283   123031746.963        -456.271          45.000  
> 2017 12 19  9 17 50.0002584  0 23                     
G29  23918995.761   125695129.905        2915.625          39.000  
G10  23136977.446   121585646.540       -3181.559          39.000  
G12  23710308.372   124598522.099       -2983.894          39.000  
G14  20503932.134   107748880.463        1261.084          44.000  
G25  21160851.584   111201003.459       -1248.757          43.000  
G31  20632474.408   108424373.043        1348.010          47.000  
G32  20474793.063   107595750.209        -197.070          47.000  
C20                                     -2784.565          39.000  
G 3  24464927.577   128564068.459        3319.343          38.000  
C 9  35918890.207   187039096.899         469.165          42.000  
C 6  36405040.307   189570608.538         -87.478          41.000  
C 7  36254229.689   188785289.389         758.662          42.000  
C 3  37510440.003   195326704.045         453.490          37.000  
G26  23258877.154   122226293.854        4010.621          38.000  
C 1  37895621.495   197332443.847         470.629          37.000  
C10  37462531.128   195077242.560        1125.914          38.000  
C 2  38391205.619   199913080.152         394.511          36.000  
C 5  40031194.193   208452932.5632        389.287          32.000  
G 1  25532862.711   134176113.602       -1411.369          33.000  
G22  23361255.383   122764219.473        2326.868          40.000  
G 4  21816731.455   114647770.848        3723.844          43.000  
C 4  39070349.893   203449564.311         447.110          35.000  
C19  23627042.180   123032203.439        -456.469          45.000  
> 2017 12 19  9 17 51.0002584  0 23                     
G29  23918440.923   125692214.541        2914.984          39.000  
G10  23137582.680   121588828.147       -3181.941          39.000  
G12  23710876.010   124601506.635       -2984.872          39.000  
G14  20503692.185   107747619.552        1260.438          44.000  
G25  21161089.239   111202252.463       -1249.449          44.000  
G31  20632217.777   108423025.255        1347.575          47.000  
G32  20474830.467   107595947.539        -197.610          47.000  
C20                                     -2785.232          39.000  
G 3  24464295.993   128560749.121        3318.844          38.000  
C 9  35918800.041   187038627.875         468.793          42.000  
C 6  36405057.295   189570695.977         -87.390          41.000  
C 7  36254083.953   188784530.835         758.268          42.000  
C 3  37510352.726   195326250.242         453.964          37.000  
G26  23258113.533   122222282.880        4010.858          38.000  
C 1  37895531.129   197331973.414         470.345          37.000  
C10  37462314.798   195076117.177        1125.208          38.000  
C 2  38391130.060   199912688.5333        394.124          36.000  
C 5  40031119.253   208452542.8123        390.060          32.000  
G 1  25533131.479   134177525.395       -1412.207          33.000  
G22  23360812.889   122761893.123        2326.114          40.000  
G 4  21816023.045   114644047.312        3723.497          43.000  
C 4  39070264.370   203449117.716         446.759          35.000  
C19  23627129.902   123032660.356        -457.150          45.000  
> 2017 12 19  9 17 52.0002584  0 23                     
G29  23917886.390   125689299.527        2915.112          39.000  
G10  23138188.691   121592010.019       -3182.125          40.000  
G12  23711443.727   124604491.513       -2985.420          39.000  
G14  20503452.463   107746359.098        1260.184          44.000  
G25  21161326.902   111203502.156       -1250.155          43.000  
G31  20631961.328   108421677.930        1346.963          47.000  
G32  20474867.968   107596145.428        -198.196          47.000  
C20                                     -2785.236          37.000  
G 3  24463664.408   128557430.250        3318.357          38.000  
C 9  35918710.033   187038159.053         468.829          40.000  
C 6  36405073.838   189570783.666         -87.784          39.000  
C 7  36253938.244   188783772.471         758.216          39.000  
C 3  37510265.379   195325796.554         453.937          34.000  
G26  23257350.365   122218272.295        4010.464          38.000  
C 1  37895440.763   197331503.078         470.291          35.000  
C10  37462098.729   195074991.943        1124.927          36.000  
C 2  38391054.335   199912294.5132        393.873          35.000  
C 5  40031044.627   208452154.1672        390.269          32.000  
G 1  25533400.300   134178937.572       -1412.300          33.000  
G22  23360370.561   122759567.373        2325.394          40.000  
G 4  21815314.697   114640324.281        3722.797          43.000  
C 4  39070178.680   203448672.7413        446.109          32.000  
C19  23627217.589   123033117.912        -457.901          41.000  
> 2017 12 19  9 17 53.0002584  0 23                     
G29  23917331.813   125686384.889        2914.410          39.000  
G10  23138794.764   121595192.178       -3182.320          40.000  
G12  23712011.853   124607476.782       -2985.468          39.000  
G14  20503212.810   107745099.103        1259.815          44.000  
G25  21161565.010   111204752.565       -1250.888          44.000  
G31  20631705.168   108420331.046        1346.593          47.000  
G32  20474905.791   107596343.883        -198.805          47.000  
C20                                     -2785.779          40.000  
G 3  24463032.920   128554111.832        3318.412          37.000  
C 9  35918620.086   187037690.456         468.420          44.000  
C 6  36405090.992   189570871.570         -88.295          43.000  
C 7  36253792.657   188783014.290         757.877          43.000  
C 3  37510178.215   195325342.974         453.347          38.000  
G26  23256587.066   122214262.009        4010.315          38.000  
C 1  37895350.519   197331032.819         470.037          38.000  
C10  37461882.634   195073866.915        1124.680          40.000  
C 2  38390978.644   199911900.5862        393.754          38.000  
C 5  40030969.835   208451764.6733        389.097          32.000  
G 1  25533668.972   134180350.230       -1412.706          33.000  
G22  23359928.155   122757242.224        2324.529          40.000  
G 4  21814606.097   114636601.736        3722.064          43.000  
C 4  39070093.140   203448226.3452        445.915          36.000  
C19  23627305.617   123033576.116        -458.632          47.000  
> 2017 12 19  9 17 54.0002584  0 23                     
G29  23916777.315   125683470.478        2914.471          39.000  
G10  23139400.260   121598374.464       -3182.238          39.000  
G12  23712579.936   124610462.303       -2985.832          39.000  
G14  20502973.044   107743839.444        1259.662          44.000  
G25  21161803.022   111206003.538       -1251.122          44.000  
G31  20631448.798   108418984.482        1346.465          47.000  
G32  20474943.431   107596542.766        -198.969          47.000  
C20                                     -2785.675          40.000  
G 3  24462401.196   128550793.778        3317.814          37.000  
C 9  35918530.130   187037221.924         468.579          42.000  
C 6  36405107.517   189570959.561         -88.164          41.000  
C 7  36253647.235   188782256.183         758.121          42.000  
C 3  37510091.173   195324889.327         453.521          38.000  
G26  23255824.169   122210251.930        4010.140          38.000  
C 1  37895260.197   197330562.551         470.153          37.000  
C10  37461666.688   195072741.963        1124.979          38.000  
C 2  38390902.876   199911506.6132        394.247          36.000  
C 5  40030895.279   208451376.1293        389.378          32.000  
G 1  25533937.688   134181763.213       -1412.890          33.000  
G22  23359485.722   122754917.521        2324.542          40.000  
G 4  21813897.827   114632879.547        3722.251          43.000  
C 4  39070007.581   203447779.8862        446.512          35.000  
C19  23627393.706   123034034.815        -458.801          45.000  
> 2017 12 19  9 17 55.0002584  0 24                     
G29  23916222.704   125680556.136        2914.081          39.000  
G10  23140005.948   121601556.759       -3182.732          39.000  
G12  23713148.142   124613447.879       -2985.904          39.000  
G14  20502733.086   107742579.951        1259.222          44.000  
G25  21162041.148   111207254.917       -1251.797          44.000  
G31  20631192.585   108417638.074        1346.221          47.000  
G32  20474981.612   107596741.915        -199.611          47.000  
C20                                     -2786.210          39.000  
G 3  24461769.314   128547475.888        3317.168          37.000  
C 9  35918440.139   187036753.303         468.433          42.000  
C 6  36405124.749   189571047.496         -88.311          41.000  
C 7  36253501.814   188781497.948         758.044          42.000  
C 3  37510004.105   195324435.523         453.756          37.000  
G26  23255060.923   122206241.881        4009.821          38.000  
C 1  37895169.866   197330092.039         470.444          37.000  
C10  37461450.925   195071616.885        1124.601          38.000  
C 2  38390827.517   199911112.4872        393.863          36.000  
C 5  40030820.243   208450985.3483        389.210          32.000  
G 1  25534206.761   134183176.318       -1413.110          33.000  
G22  23359043.036   122752593.119        2324.197          40.000  
G18  25114051.159                       -3110.352          27.000  
G 4  21813189.627   114629157.563        3721.641          43.000  
C 4  39069921.674   203447333.2652        446.317          35.000  
C19  23627481.917   123034493.860        -459.333          45.000  
> 2017 12 19  9 17 56.0002584  0 24                     
G29  23915668.083   125677642.099        2914.386          39.000  
G10  23140611.070   121604739.252       -3182.344          39.000  
G12  23713716.705   124616433.796       -2985.613          39.000  
G14  20502493.320   107741320.855        1259.377          44.000  
G25  21162279.570   111208506.943       -1251.930          44.000  
G31  20630936.372   108416292.059        1346.316          47.000  
G32  20475019.357   107596941.559        -199.610          47.000  
C20                                     -2785.686          39.000  
G 3  24461137.774   128544158.384        3317.861          38.000  
C 9  35918350.122   187036284.825         468.781          42.000  
C 6  36405141.405   189571135.577         -87.896          41.000  
C 7  36253356.331   188780739.871         758.289          42.000  
C 3  37509917.107   195323981.752         453.765          38.000  
G26  23254298.086   122202232.095        4009.758          39.000  
C 1  37895079.639   197329621.624         470.618          37.000  
C10  37461234.935   195070491.963        1125.437          38.000  
C 2  38390751.914   199910718.3732        394.303          36.000  
C 5  40030745.190   208450594.6432        390.183          32.000  
G 1  25534475.504   134184589.818       -1413.554          33.000  
G22  23358600.786   122750269.254        2324.044          40.000  
G18  25114643.315                       -3110.550          27.000  
G 4  21812481.131   114625436.030        3721.562          43.000  
C 4  39069835.862   203446886.6932        446.788          35.000  
C19  23627570.171   123034953.508        -459.631          45.000  
> 2017 12 19  9 17 57.0002584  0 24                     
G29  23915113.542   125674728.236        2913.593          39.000  
G10  23141216.453   121607921.821       -3182.690          39.000  
G12  23714285.145   124619419.900       -2986.299          39.000  
G14  20502253.834   107740062.039        1258.520          44.000  
G25  21162517.862   111209759.489       -1253.054          44.000  
G31  20630680.151   108414946.313        1345.391          47.000  
G32  20475057.547   107597141.587        -200.385          47.000  
C20                                     -2786.408          39.000  
G 3  24460506.940   128540841.177        3316.379          37.000  
C 9  35918260.158   187035816.365         468.317          42.000  
C 6  36405158.367   189571223.717         -88.453          41.000  
C 7  36253210.622   188779981.789         758.050          42.000  
C 3  37509830.031   195323527.897         453.598          37.000  
G26  23253535.189   122198222.422        4009.581          38.000  
C 1  37894989.352   197329151.101         470.128          37.000  
C10  37461019.058   195069367.087        1124.646          38.000  
C 2  38390676.206   199910323.673         393.932          36.000  
C 5  40030670.459   208450205.8043        389.956          32.000  
G 1  25534744.778   134186003.550       -1413.791          34.000  
G22  23358158.877   122747945.810        2323.266          40.000  
G18  25115232.077                       -3110.638          27.000  
G 4  21811773.080   114621714.794        3720.767          43.000  
C 4  39069749.929   203446440.0362        445.758          35.000  
C19  23627658.740   123035413.594        -460.517          45.000  
> 2017 12 19  9 17 58.0002584  0 24                     
G29  23914558.974   125671814.762        2913.049          39.000  
G10  23141822.045   121611104.686       -3182.783          39.000  
G12  23714853.508   124622406.413       -2987.005          39.000  
G14  20502014.478   107738803.699        1258.129          44.000  
G25  21162756.389   111211012.732       -1253.438          44.000  
G31  20630424.269   108413601.020        1345.042          47.000  
G32  20475095.597   107597342.178        -200.837          47.000  
C20                                     -2786.630          39.000  
G 3  24459875.948   128537524.437        3316.646          38.000  
C 9  35918170.185   187035348.123         468.237          42.000  
C 6  36405175.381   189571312.077         -88.270          42.000  
C 7  36253064.887   188779223.900         758.152          42.000  
C 3  37509742.631   195323074.111         454.005          38.000  
G26  23252771.873   122194213.126        4009.080          39.000  
C 1  37894898.951   197328680.678         470.422          37.000  
C10  37460803.016   195068242.369        1124.553          38.000  
C 2  38390600.699   199909929.577         394.059          36.000  
C 5  40030595.659   208449816.1342        388.891          32.000  
G 1  25535013.878   134187417.722       -1413.661          34.000  
G22  23357717.037   122745622.963        2322.473          40.000  
G18  25115823.369                       -3109.626          26.000  
G 4  21811065.020   114617994.063        3720.517          43.000  
C 4  39069664.353   203445992.958         446.380          35.000  
C19  23627747.273   123035874.334        -461.148          45.000  
> 2017 12 19  9 17 59.0002584  0 24                     
G29  23914004.510   125668901.534        2913.293          39.000  
G10  23142427.829   121614287.721       -3182.967          40.000  
G12  23715421.835   124625393.175       -2986.907          39.000  
G14  20501775.034   107737545.712        1257.794          44.000  
G25  21162994.925   111212266.592       -1253.963          44.000  
G31  20630168.310   108412256.067        1345.009          47.000  
G32  20475133.979   107597543.234        -201.172          47.000  
C20                                     -2786.449          39.000  
G 3  24459244.931   128534208.096        3316.154          38.000  
C 9  35918080.264   187034879.982         468.543          42.000  
C 6  36405192.334   189571400.588         -88.579          42.000  
C 7  36252919.439   188778466.143         757.828          42.000  
C 3  37509655.563   195322620.339         454.244          38.000  
G26  23252008.984   122190204.009        4009.306          39.000  
C 1  37894808.672   197328210.247         470.847          37.000  
C10  37460586.816   195067117.749        1124.833          38.000  
C 2  38390525.044   199909535.493         393.915          36.000  
C 5  40030520.893   208449426.4243        390.038          32.000  
G 1  25535283.056   134188832.284       -1414.481          34.000  
G22  23357275.050   122743300.601        2322.342          40.000  
G18  25116420.402                       -3111.290          26.000  
G 4  21810357.265   114614273.725        3720.461          43.000  
C 4  39069578.271   203445546.399         446.249          35.000  
C19  23627835.790   123036335.599        -461.345          45.000  
> 2017 12 19  9 18  0.0002584  0 24                     
G29  23913450.195   125665988.532        2912.640          39.000  
G10  23143033.291   121617470.851       -3183.104          40.000  
G12  23715990.407   124628380.149       -2986.978          39.000  
G14  20501535.862   107736288.010        1257.532          44.000  
G25  21163233.757   111213520.985       -1254.821          44.000  
G31  20629912.271   108410911.409        1344.607          47.000  
G32  20475172.300   107597744.681        -201.660          47.000  
C20                                     -2786.644          39.000  
G 3  24458613.966   128530892.037        3315.779          38.000  
C 9  35917990.386   187034411.903         468.036          42.000  
C 6  36405209.566   189571489.137         -88.483          42.000  
C 7  36252774.009   188777708.397         757.747          42.000  
C 3  37509568.495   195322166.520         453.827          38.000  
G26  23251246.305   122186195.085        4008.945          39.000  
C 1  37894718.193   197327739.758         470.675          37.000  
C10  37460370.652   195065993.139        1124.648          38.000  
C 2  38390449.406   199909141.317         393.838          36.000  
C 5  40030446.067   208449036.6992        389.072          32.000  
G 1  25535552.418   134190247.093       -1414.909          34.000  
G22  23356833.201   122740978.655        2322.009          40.000  
G18  25117009.687                       -3109.972          25.000  
G 4  21809649.641   114610553.726        3719.982          43.000  
C 4  39069492.599   203445099.765         446.315          35.000  
C19  23627924.707   123036797.337        -461.913          45.000  
> 2017 12 19  9 18  1.0002584  0 24                     
G29  23912896.011   125663075.944        2912.543          39.000  
G10  23143639.407   121620654.342       -3183.450          40.000  
G12  23716558.534   124631367.574       -2987.569          39.000  
G14  20501296.488   107735030.852        1257.080          44.000  
G25  21163472.572   111214776.130       -1255.221          44.000  
G31  20629656.582   108409567.268        1344.042          47.000  
G32  20475210.725   107597946.758        -202.278          47.000  
C20                                     -2787.352          39.000  
G 3  24457983.341   128527576.493        3315.755          38.000  
C 9  35917900.657   187033944.073         467.804          42.000  
C 6  36405226.719   189571577.984         -88.776          42.000  
C 7  36252628.718   188776950.911         757.646          42.000  
C 3  37509481.410   195321712.838         454.307          38.000  
G26  23250483.504   122182186.543        4008.569          38.000  
C 1  37894627.722   197327269.472         469.865          37.000  
C10  37460154.618   195064868.847        1124.189          38.000  
C 2  38390373.584   199908748.8183        394.158          36.000  
C 5  40030371.118   208448647.0153        390.351          32.000  
G 1  25535821.788   134191662.435       -1415.600          33.000  
G22  23356391.685   122738657.407        2321.103          40.000  
G18  25117601.973                       -3109.162          25.000  
G 4  21808942.131   114606834.290        3719.487          43.000  
C 4  39069406.997   203444653.281         446.979          35.000  
C19  23628013.398   123037259.796        -462.703          45.000  
> 2017 12 19  9 18  2.0002584  0 24                     
G29  23912341.793   125660163.743        2912.335          39.000  
G10  23144245.296   121623838.132       -3183.305          39.000  
G12  23717127.088   124634355.396       -2987.682          39.000  
G14  20501057.386   107733774.165        1256.923          44.000  
G25  21163711.640   111216032.023       -1255.901          44.000  
G31  20629400.875   108408223.592        1343.886          47.000  
G32  20475249.281   107598149.422        -202.476          47.000  
C20                                     -2786.960          39.000  
G 3  24457353.005   128524261.477        3315.050          38.000  
C 9  35917810.597   187033476.486         467.847          42.000  
C 6  36405243.829   189571667.089         -88.826          42.000  
C 7  36252483.271   188776193.639         757.799          42.000  
C 3  37509394.368   195321259.304         454.135          38.000  
G26  23249720.763   122178178.357        4008.407          39.000  
C 1  37894537.548   197326799.224         471.072          37.000  
C10  37459938.602   195063744.759        1124.468          38.000  
C 2  38390297.955   199908354.9122        394.685          36.000  
C 5  40030296.248   208448256.5442        390.338          32.000  
G 1  25536091.333   134193078.211       -1415.476          33.000  
G22  23355950.133   122736336.751        2320.828          40.000  
G18  25118196.302                       -3109.181          25.000  
G 4  21808234.211   114603115.382        3719.021          43.000  
C 4  39069321.508   203444206.980         446.542          35.000  
C19  23628102.211   123037722.912        -462.993          45.000  
> 2017 12 19  9 18  3.0002584  0 24                     
G29  23911787.495   125657251.759        2912.000          39.000  
G10  23144851.411   121627022.034       -3184.040          40.000  
G12  23717695.695   124637343.454       -2988.406          39.000  
G14  20500818.265   107732517.791        1256.187          44.000  
G25  21163950.699   111217288.466       -1256.848          44.000  
G31  20629145.177   108406880.209        1343.211          47.000  
G32  20475287.899   107598352.487        -203.335          47.000  
C20                                     -2787.433          40.000  
G 3  24456722.502   128520946.769        3314.404          39.000  
C 9  35917720.763   187033008.941         467.639          42.000  
C 6  36405260.442   189571756.266         -89.325          42.000  
C 7  36252337.727   188775436.403         757.111          42.000  
C 3  37509307.301   195320805.696         454.066          38.000  
G26  23248958.041   122174170.341        4007.851          39.000  
C 1  37894447.453   197326329.008         470.281          37.000  
C10  37459722.795   195062620.660        1124.332          38.000  
C 2  38390222.404   199907961.0202        393.740          36.000  
C 5  40030221.648   208447868.0353        389.689          32.000  
G 1  25536360.773   134194494.286       -1416.093          33.000  
G22  23355508.965   122734016.539        2320.086          40.000  
G18  25118790.115                       -3110.403          25.000  
G 4  21807526.657   114599396.797        3718.582          43.000  
C 4  39069235.365   203443760.0943        445.826          35.000  
C19  23628191.355   123038186.511        -463.882          45.000  
> 2017 12 19  9 18  4.0002584  0 24                     
G29  23911233.233   125654339.983        2912.170          39.000  
G10  23145457.318   121630206.043       -3183.750          39.000  
G12  23718264.371   124640331.719       -2988.323          39.000  
G14  20500579.633   107731261.713        1256.174          44.000  
G25  21164189.950   111218545.413       -1256.730          44.000  
G31  20628889.619   108405537.120        1343.099          47.000  
G32  20475326.673   107598555.952        -203.329          47.000  
C20                                     -2787.627          40.000  
G 3  24456092.008   128517632.352        3314.761          39.000  
C 9  35917631.008   187032541.440         467.743          42.000  
C 6  36405277.822   189571845.487         -88.915          42.000  
C 7  36252192.515   188774679.202         757.310          42.000  
C 3  37509219.796   195320352.059         453.942          38.000  
G26  23248195.562   122170162.481        4007.957          39.000  
C 1  37894357.148   197325858.696         470.537          37.000  
C10  37459507.040   195061496.664        1124.385          38.000  
C 2  38390146.470   199907567.0112        394.263          36.000  
C 5  40030146.639   208447477.4432        389.345          32.000  
G 1  25536630.309   134195910.616       -1416.540          33.000  
G22  23355067.562   122731696.776        2319.771          40.000  
G18  25119380.761                       -3110.234          26.000  
G 4  21806819.347   114595678.567        3718.270          43.000  
C 4  39069149.606   203443313.6102        446.515          35.000  
C19  23628280.456   123038650.593        -464.046          45.000  
> 2017 12 19  9 18  5.0002584  0 24                     
G29  23910679.432   125651428.633        2911.078          39.000  
G10  23146063.059   121633390.388       -3184.761          39.000  
G12  23718833.248   124643320.407       -2989.112          39.000  
G14  20500340.618   107730006.142        1255.280          44.000  
G25  21164429.079   111219803.147       -1258.127          44.000  
G31  20628634.113   108404194.530        1341.995          47.000  
G32  20475365.439   107598760.035        -204.535          48.000  
C20                                     -2788.319          39.000  
G 3  24455461.532   128514318.481        3313.204          39.000  
C 9  35917541.340   187032074.211         466.876          42.000  
C 6  36405294.958   189571935.000         -89.740          42.000  
C 7  36252047.251   188773922.254         756.537          42.000  
C 3  37509132.746   195319898.542         453.175          38.000  
G26  23247432.839   122166155.016        4006.792          39.000  
C 1  37894266.756   197325388.528         470.170          37.000  
C10  37459291.539   195060372.911        1122.956          38.000  
C 2  38390070.806   199907173.1702        393.839          36.000  
C 5  40030071.925   208447088.9423        389.641          32.000  
G 1  25536899.932   134197327.455       -1416.742          33.000  
G22  23354626.072   122729377.637        2318.724          40.000  
G18  25119973.711                       -3110.646          26.000  
G 4  21806111.863   114591960.880        3717.218          43.000  
C 4  39069064.065   203442867.2872        446.100          35.000  
C19  23628369.496   123039115.353        -465.279          45.000  
> 2017 12 19  9 18  6.0002584  0 24                     
G29  23910125.423   125648517.553        2911.249          39.000  
G10  23146669.035   121636574.914       -3184.533          39.000  
G12  23719402.116   124646309.414       -2989.209          39.000  
G14  20500101.681   107728750.961        1255.171          44.000  
G25  21164668.549   111221061.497       -1258.357          44.000  
G31  20628378.615   108402852.299        1342.305          47.000  
G32  20475404.492   107598964.591        -204.564          48.000  
C20                                     -2788.276          39.000  
G 3  24454831.012   128511004.946        3313.744          39.000  
C 9  35917451.672   187031607.085         467.310          42.000  
C 6  36405312.365   189572024.649         -89.408          42.000  
C 7  36251901.952   188773165.399         756.896          42.000  
C 3  37509045.748   195319445.054         453.482          38.000  
G26  23246670.352   122162147.761        4007.746          39.000  
C 1  37894176.477   197324918.390         470.503          37.000  
C10  37459075.662   195059249.228        1123.734          38.000  
C 2  38389995.046   199906779.3622        393.490          36.000  
C 5  40029997.291   208446699.5262        389.882          32.000  
G 1  25537169.311   134198744.647       -1416.502          33.000  
G22  23354185.009   122727059.013        2318.626          41.000  
G18  25120565.221                       -3108.278          26.000  
G 4  21805404.204   114588243.592        3717.255          43.000  
C 4  39068978.411   203442420.9722        446.825          35.000  
C19  23628459.042   123039580.671        -465.392          45.000  
> 2017 12 19  9 18  7.0002584  0 24                     
G29  23909571.675   125645606.695        2910.913          39.000  
G10  23147275.081   121639759.537       -3184.559          39.000  
G12  23719970.994   124649298.610       -2989.464          39.000  
G14  20499862.875   107727496.073        1254.721          44.000  
G25  21164908.140   111222320.379       -1259.035          44.000  
G31  20628123.380   108401510.379        1341.677          47.000  
G32  20475443.607   107599169.554        -205.277          47.000  
C20                                     -2788.253          39.000  
G 3  24454200.474   128507691.765        3312.794          39.000  
C 9  35917361.829   187031140.019         466.986          42.000  
C 6  36405329.344   189572114.372         -89.803          42.000  
C 7  36251756.853   188772408.601         756.490          42.000  
C 3  37508958.872   195318991.490         453.335          38.000  
G26  23245907.743   122158140.720        4006.762          38.000  
C 1  37894086.198   197324448.179         470.482          37.000  
C10  37458859.969   195058125.590        1123.703          38.000  
C 2  38389919.530   199906384.951         393.796          36.000  
C 5  40029922.438   208446310.0423        389.585          32.000  
G 1  25537438.943   134200162.143       -1417.380          33.000  
G22  23353743.946   122724740.823        2318.171          40.000  
G18  25121158.275   132012577.4042      -3109.116          27.000  
G 4  21804696.694   114584526.650        3716.865          43.000  
C 4  39068892.416   203441974.6512        446.074          35.000  
C19  23628548.614   123040046.479        -466.079          45.000  
> 2017 12 19  9 18  8.0002584  0 24                     
G29  23909017.701   125642695.962        2910.468          39.000  
G10  23147881.040   121642944.228       -3184.762          39.000  
G12  23720539.871   124652287.958       -2989.674          39.000  
G14  20499624.007   107726241.417        1254.240          44.000  
G25  21165147.767   111223579.738       -1259.771          43.000  
G31  20627868.083   108400168.652        1341.466          47.000  
G32  20475482.791   107599374.834        -205.616          47.000  
C20                                     -2788.606          40.000  
G 3  24453570.103   128504378.813        3312.610          39.000  
C 9  35917272.048   187030672.931         466.772          42.000  
C 6  36405346.812   189572204.066         -89.862          42.000  
C 7  36251611.484   188771651.730         756.414          42.000  
C 3  37508871.734   195318537.783         453.886          38.000  
G26  23245145.273   122154133.723        4006.703          39.000  
C 1  37893995.763   197323977.843         470.155          37.000  
C10  37458644.171   195057001.901        1123.653          38.000  
C 2  38389843.752   199905990.4203        394.042          36.000  
C 5  40029847.481   208445920.4022        389.316          32.000  
G 1  25537708.689   134201579.818       -1417.752          33.000  
G22  23353302.822   122722423.006        2317.323          40.000  
G18  25121751.461   132015686.9432      -3109.095          27.000  
G 4  21803989.593   114580809.963        3716.551          43.000  
C 4  39068806.727   203441528.1402        446.586          35.000  
C19  23628638.124   123040512.686        -466.738          45.000  
> 2017 12 19  9 18  9.0002584  0 24                     
G29  23908464.040   125639785.519        2910.284          39.000  
G10  23148487.112   121646129.109       -3185.366          39.000  
G12  23721108.896   124655277.589       -2989.882          39.000  
G14  20499384.939   107724987.129        1254.249          44.000  
G25  21165387.611   111224839.707       -1260.288          43.000  
G31  20627612.629   108398827.300        1341.235          47.000  
G32  20475521.819   107599580.592        -206.118          48.000  
C20                                     -2788.586          40.000  
G 3  24452939.836   128501066.243        3312.260          39.000  
C 9  35917182.450   187030205.948         466.882          42.000  
C 6  36405364.061   189572293.905         -89.758          42.000  
C 7  36251466.045   188770894.978         756.620          42.000  
C 3  37508784.605   195318084.110         453.699          38.000  
G26  23244382.602   122150126.995        4006.634          39.000  
C 1  37893905.536   197323507.537         469.942          37.000  
C10  37458428.320   195055878.348        1123.603          38.000  
C 2  38389768.132   199905596.4092        393.922          36.000  
C 5  40029772.663                         387.549          32.000  
G 1  25537978.600   134202997.852       -1418.015          34.000  
G22  23352861.680   122720105.690        2316.984          40.000  
G18  25122344.559   132018796.4912      -3109.586          26.000  
G 4  21803282.615   114577093.713        3715.912          43.000  
C 4  39068720.776   203441081.158         446.768          35.000  
C19  23628727.757   123040979.445        -467.209          45.000  
> 2017 12 19  9 18 10.0002584  0 24                     
G29  23907910.257   125636875.461        2909.875          39.000  
G10  23149093.219   121649314.251       -3185.238          39.000  
G12  23721677.983   124658267.636       -2990.579          39.000  
G14  20499146.377   107723733.346        1253.564          44.000  
G25  21165627.456   111226100.408       -1261.119          43.000  
G31  20627357.463   108397486.426        1340.489          47.000  
G32  20475560.899   107599786.934        -206.709          47.000  
C20                                     -2789.036          39.000  
G 3  24452309.342   128497754.133        3312.259          39.000  
C 9  35917093.061   187029739.219         466.431          42.000  
C 6  36405381.354   189572384.009         -90.245          42.000  
C 7  36251320.964   188770138.452         756.408          42.000  
C 3  37508697.354   195317630.560         453.800          37.000  
G26  23243620.246   122146120.589        4006.560          38.000  
C 1  37893815.197   197323037.333         470.059          37.000  
C10  37458212.705   195054754.999        1122.992          38.000  
C 2  38389692.494   199905202.5292        393.504          36.000  
C 5  40029697.810                         389.477          32.000  
G 1  25538248.398   134204416.358       -1418.423          34.000  
G22  23352420.696   122717788.987        2316.400          40.000  
G18  25122935.135   132021905.9592      -3109.171          26.000  
G 4  21802575.253   114573377.957        3715.292          43.000  
C 4  39068634.860   203440633.3093        445.794          35.000  
C19  23628817.652   123041446.864        -467.799          45.000  
> 2017 12 19  9 18 11.0002584  0 24                     
G29  23907356.344   125633965.761        2909.412          39.000  
G10  23149699.597   121652499.685       -3185.554          39.000  
G12  23722247.296   124661258.019       -2990.769          39.000  
G14  20498908.007   107722480.008        1253.167          44.000  
G25  21165867.257   111227361.797       -1261.930          43.000  
G31  20627102.542   108396145.981        1340.220          47.000  
G32  20475600.258   107599993.828        -207.075          47.000  
C20                                     -2787.508          17.000  
G 3  24451679.311   128494442.506        3311.676          39.000  
C 9  35917003.350   187029272.629         466.412          42.000  
C 6  36405398.648   189572474.310         -90.463          42.000  
C 7  36251175.377   188769382.108         756.168          42.000  
C 3  37508610.217   195317177.074         453.749          38.000  
G26  23242857.628   122142114.537        4005.960          38.000  
C 1  37893724.787   197322567.226         470.257          37.000  
C10  37457996.881   195053631.832        1123.050          38.000  
C 2  38389616.917   199904808.7172        393.745          36.000  
C 5  40029622.958   208444750.8472        389.188          32.000  
G 1  25538518.169   134205835.284       -1418.966          34.000  
G22  23351979.659   122715472.882        2315.704          40.000  
G18  25123524.298   132025015.5512      -3109.294          26.000  
G 4  21801868.214   114569662.687        3715.036          43.000  
C 4  39068549.284   203440187.0452        446.293          35.000  
C19  23628907.626   123041914.907        -468.293          45.000  
> 2017 12 19  9 18 12.0002584  0 24                     
G29  23906802.579   125631056.366        2908.667          39.000  
G10  23150305.407   121655685.318       -3186.313          39.000  
G12  23722816.365   124664248.715       -2991.227          39.000  
G14  20498669.428   107721227.060        1252.481          44.000  
G25  21166107.276   111228623.817       -1262.990          43.000  
G31  20626847.463   108394805.929        1339.400          47.000  
G32  20475639.695   107600201.223        -208.129          47.000  
C20                                     -2787.508          15.000  
G 3  24451049.375   128491131.279        3310.981          39.000  
C 9  35916913.970   187028806.210         465.833          42.000  
C 6  36405415.906   189572564.771         -90.833          42.000  
C 7  36251030.296   188768625.870         755.642          42.000  
C 3  37508523.140   195316723.665         452.735          38.000  
G26  23242095.184   122138108.729        4005.089          39.000  
C 1  37893634.343   197322097.151         469.738          37.000  
C10  37457781.109   195052508.797        1122.407          38.000  
C 2  38389541.087   199904414.9422        393.274          36.000  
C 5  40029548.096   208444361.4512        389.657          32.000  
G 1  25538788.473   134207254.592       -1419.736          34.000  
G22  23351538.927   122713157.293        2314.802          40.000  
G18  25124115.005                       -3109.422          25.000  
G 4  21801161.376   114565947.862        3714.157          43.000  
C 4  39068463.839   203439740.8142        445.246          35.000  
C19  23628997.704   123042383.537        -469.377          45.000  
> 2017 12 19  9 18 13.0002584  0 23                     
G29  23906248.901   125628147.124        2909.320          39.000  
G10  23150911.567   121658871.027       -3185.775          39.000  
G12  23723385.321   124667239.588       -2990.512          39.000  
G14  20498431.023   107719974.389        1252.476          44.000  
G25  21166347.513   111229886.356       -1262.995          43.000  
G31  20626592.376   108393466.122        1339.634          47.000  
G32  20475679.420   107600408.970        -207.726          47.000  
G 3  24450419.501   128487820.330        3311.047          38.000  
C 9  35916824.267   187028339.820         466.412          42.000  
C 6  36405433.661   189572655.284         -90.411          42.000  
C 7  36250885.032   188767869.667         756.102          42.000  
C 3  37508435.985   195316270.113         453.824          38.000  
G26  23241332.863   122134103.073        4005.278          38.000  
C 1  37893543.793   197321626.995         470.164          37.000  
C10  37457565.712   195051385.750        1123.267          38.000  
C 2  38389465.623   199904021.0722        394.126          36.000  
C 5  40029473.287   208443970.9683        390.173          32.000  
G 1  25539058.498   134208674.154       -1419.544          35.000  
G22  23351098.423   122710842.113        2314.946          40.000  
G18  25124706.027   132031234.4072      -3109.807          25.000  
G 4  21800454.642   114562233.334        3714.480          43.000  
C 4  39068377.879   203439294.4512        447.123          35.000  
C19  23629087.703   123042852.606        -469.301          45.000  
> 2017 12 19  9 18 14.0002584  0 23                     
G29  23905695.153   125625238.061        2908.997          39.000  
G10  23151517.796   121662056.794       -3185.750          39.000  
G12  23723954.346   124670230.666       -2991.286          39.000  
G14  20498192.592   107718721.960        1252.355          44.000  
G25  21166588.020   111231149.361       -1263.361          43.000  
G31  20626337.533   108392126.550        1339.544          47.000  
G32  20475719.050   107600617.087        -208.408          47.000  
G 3  24449789.234   128484509.657        3310.239          38.000  
C 9  35916734.669   187027873.421         466.241          42.000  
C 6  36405450.841   189572745.800         -90.405          42.000  
C 7  36250739.732   188767113.403         756.207          42.000  
C 3  37508348.795   195315816.487         453.695          38.000  
G26  23240570.881   122130097.487        4005.571          38.000  
C 1  37893453.541   197321156.700         470.529          37.000  
C10  37457349.827   195050262.708        1123.002          38.000  
C 2  38389389.959   199903627.1152        393.554          36.000  
C 5  40029398.652   208443582.4102        388.823          32.000  
G 1  25539328.409   134210093.915       -1419.714          35.000  
G22  23350657.700   122708527.317        2314.497          40.000  
G18  25125297.903   132034343.5162      -3108.885          24.000  
G 4  21799747.969   114558519.095        3714.095          43.000  
C 4  39068292.382   203438848.0252        446.451          35.000  
C19  23629177.895   123043322.099        -469.673          45.000  
> 2017 12 19  9 18 15.0002584  0 23                     
G29  23905141.379   125622329.206        2908.954          38.000  
G10  23152123.912   121665242.684       -3185.643          39.000  
G12  23724523.433   124673221.932       -2991.076          39.000  
G14  20497954.309   107717469.839        1252.297          44.000  
G25  21166828.537   111232412.919       -1263.523          43.000  
G31  20626082.577   108390787.275        1339.387          47.000  
G32  20475758.871   107600825.602        -208.489          47.000  
G 3  24449159.264   128481199.277        3309.977          38.000  
C 9  35916645.140   187027407.047         466.693          42.000  
C 6  36405468.623   189572836.391         -90.372          42.000  
C 7  36250594.416   188766357.210         756.380          42.000  
C 3  37508261.736   195315362.774         454.179          38.000  
G26  23239808.551   122126092.100        4005.550          38.000  
C 1  37893363.053   197320686.369         470.839          37.000  
C10  37457134.151   195049139.714        1123.320          38.000  
C 2  38389314.382   199903232.576         394.266          36.000  
C 5  40029323.870   208443193.7163        390.282          32.000  
G 1  25539598.486   134211513.979       -1419.671          35.000  
G22  23350217.379   122706212.953        2314.689          40.000  
G18  25125889.396   132037452.4582      -3107.980          24.000  
G 4  21799041.261   114554805.205        3713.934          43.000  
C 4  39068206.666   203438401.5422        446.377          35.000  
C19  23629268.121   123043792.078        -469.797          45.000  
> 2017 12 19  9 18 16.0002584  0 23                     
G29  23904587.910   125619420.811        2908.588          38.000  
G10  23152730.185   121668428.942       -3186.129          39.000  
G12  23725092.528   124676213.685       -2991.600          39.000  
G14  20497716.079   107716218.271        1251.624          44.000  
G25  21167069.350   111233677.288       -1264.635          44.000  
G31  20625828.091   108389448.550        1338.697          47.000  
G32  20475798.413   107601034.768        -209.173          47.000  
G 3  24448529.363   128477889.448        3309.539          38.000  
C 9  35916555.664   187026940.972         466.321          42.000  
C 6  36405485.611   189572927.298         -90.942          42.000  
C 7  36250449.177   188765601.308         755.826          42.000  
C 3  37508174.607   195314909.277         453.445          38.000  
G26  23239046.500   122122087.140        4004.774          38.000  
C 1  37893272.826   197320216.222         470.543          37.000  
C10  37456918.667   195048017.003        1122.712          38.000  
C 2  38389238.692   199902838.730         393.933          36.000  
C 5  40029248.903   208442803.2773        389.599          32.000  
G 1  25539868.650   134212934.588       -1420.693          35.000  
G22  23349777.232   122703899.290        2313.635          40.000  
G18  25126484.038   132040561.6162      -3109.037          24.000  
G 4  21798334.885   114551091.901        3713.200          43.000  
C 4  39068121.021   203437955.2392        446.449          35.000  
C19  23629358.565   123044262.804        -471.023          45.000  
> 2017 12 19  9 18 17.0002584  0 23                     
G29  23904034.337   125616512.747        2908.203          38.000  
G10  23153336.684   121671615.444       -3186.655          39.000  
G12  23725661.859   124679205.774       -2992.126          39.000  
G14  20497478.154   107714967.126        1251.117          44.000  
G25  21167309.918   111234942.303       -1265.202          44.000  
G31  20625573.362   108388110.231        1338.362          47.000  
G32  20475838.470   107601244.468        -209.901          47.000  
G18  25127078.035                       -3108.963          23.000  
G 3  24447899.393   128474580.059        3309.062          37.000  
C 9  35916466.031   187026475.100         465.826          42.000  
C 6  36405503.349   189573018.412         -91.379          42.000  
C 7  36250304.070   188764845.541         755.813          42.000  
C 3  37508087.696   195314455.818         453.880          37.000  
G26  23238284.458   122118082.458        4004.696          38.000  
C 1  37893182.443   197319746.177         469.891          37.000  
C10  37456702.904   195046894.446        1122.573          38.000  
C 2  38389163.019   199902444.928         394.041          36.000  
C 5  40029174.452   208442414.8942        389.464          32.000  
G 1  25540138.998   134214355.560       -1420.837          35.000  
G22  23349336.902   122701586.176        2313.068          40.000  
G 4  21797628.099   114547379.070        3712.629          43.000  
C 4  39068035.305   203437508.482         446.180          35.000  
C19  23629449.071   123044734.113        -471.521          45.000  
> 2017 12 19  9 18 18.0002584  0 23                     
G29  23903480.720   125613604.943        2907.605          38.000  
G10  23153943.193   121674802.076       -3186.944          39.000  
G12  23726231.111   124682198.120       -2992.649          39.000  
G14  20497240.238   107713716.310        1250.849          44.000  
G25  21167550.950   111236207.889       -1265.677          44.000  
G31  20625318.650   108386772.239        1337.926          47.000  
G32  20475878.545   107601454.585        -210.273          47.000  
G18  25127669.684                       -3109.618          23.000  
G 3  24447269.431   128471270.998        3309.338          37.000  
C 9  35916376.477   187026009.285         466.071          43.000  
C 6  36405520.572   189573109.606         -91.328          41.000  
C 7  36250159.015   188764089.839         755.918          42.000  
C 3  37508000.497   195314002.341         453.740          38.000  
G26  23237522.538   122114077.971        4004.523          39.000  
C 1  37893092.173   197319276.062         470.093          38.000  
C10  37456487.332   195045771.942        1122.427          39.000  
C 2  38389087.495   199902051.115         394.047          36.000  
C 5  40029099.530   208442025.4463        390.194          32.000  
G 1  25540409.747   134215776.908       -1421.969          35.000  
G22  23348897.174   122699273.552        2312.357          40.000  
G 4  21796921.610   114543666.590        3712.248          43.000  
C 4  39067949.598   203437062.207         446.104          35.000  
C19  23629539.227   123045205.932        -471.937          45.000  
> 2017 12 19  9 18 19.0002584  0 23                     
G29  23902927.409   125610697.383        2907.410          38.000  
G10  23154549.754   121677988.894       -3187.152          39.000  
G12  23726800.808   124685190.741       -2992.812          39.000  
G14  20497002.234   107712465.864        1250.174          44.000  
G25  21167791.920   111237474.093       -1266.539          44.000  
G31  20625064.330   108385434.596        1337.528          47.000  
G32  20475918.541   107601665.179        -210.843          47.000  
G18  25128261.299                       -3108.868          24.000  
G 3  24446639.522   128467962.326        3308.389          37.000  
C 9  35916287.001   187025543.570         465.814          42.000  
C 6  36405538.363   189573200.922         -91.414          41.000  
C 7  36250013.882   188763334.251         755.365          42.000  
C 3  37507913.569   195313548.872         453.449          37.000  
G26  23236760.426   122110073.725        4003.839          39.000  
C 1  37893001.903   197318805.957         470.283          37.000  
C10  37456271.543   195044649.563        1122.138          38.000  
C 2  38389011.883   199901657.321         393.526          36.000  
C 5  40029024.747   208441636.0452        389.697          32.000  
G 1  25540680.234   134217198.545       -1422.125          35.000  
G22  23348457.106   122696961.399        2311.611          40.000  
G 4  21796214.972   114539954.511        3711.793          43.000  
C 4  39067863.909   203436615.938         445.761          35.000  
C19  23629630.021   123045678.306        -472.702          45.000  
> 2017 12 19  9 18 20.0002584  0 23                     
G29  23902374.219   125607790.245        2906.805          39.000  
G10  23155156.262   121681175.989       -3186.912          39.000  
G12  23727370.366   124688183.748       -2993.101          39.000  
G14  20496764.257   107711215.909        1249.798          44.000  
G25  21168033.151   111238741.047       -1267.656          44.000  
G31  20624810.037   108384097.457        1336.797          47.000  
G32  20475958.519   107601876.374        -211.414          47.000  
G18  25128854.179                       -3109.524          24.000  
G 3  24446009.621   128464654.174        3307.550          37.000  
C 9  35916197.882   187025078.128         465.332          42.000  
C 6  36405555.778   189573292.526         -91.757          41.000  
C 7  36249868.809   188762578.894         755.163          41.000  
C 3  37507826.466   195313095.556         452.785          37.000  
G26  23235998.750   122106069.844        4003.501          39.000  
C 1  37892911.816   197318335.988         470.342          37.000  
C10  37456056.181   195043527.380        1122.109          38.000  
C 2  38388936.402   199901263.652         393.200          36.000  
C 5  40028949.981   208441246.7713        388.542          31.000  
G 1  25540951.053   134218620.674       -1422.579          35.000  
G22  23348017.386   122694649.885        2311.223          40.000  
G 4  21795508.561   114536242.982        3711.193          43.000  
C 4  39067778.237   203436169.788         445.972          35.000  
C19  23629720.998   123046151.344        -473.217          45.000  
> 2017 12 19  9 18 21.0002584  0 23                     
G29  23901820.899   125604883.275        2906.769          39.000  
G10  23155762.806   121684363.212       -3187.603          39.000  
G12  23727939.993   124691176.966       -2993.540          39.000  
G14  20496526.341   107709966.243        1249.208          44.000  
G25  21168274.479   111240008.484       -1267.769          44.000  
G31  20624555.499   108382760.564        1336.477          47.000  
G32  20475998.855   107602087.941        -212.033          47.000  
G18  25129445.462                       -3110.560          24.000  
G 3  24445380.157   128461346.284        3307.527          37.000  
C 9  35916108.485   187024612.692         465.222          42.000  
C 6  36405573.429   189573384.147         -91.713          41.000  
C 7  36249723.833   188761823.562         755.037          41.000  
C 3  37507739.381   195312642.112         453.124          37.000  
G26  23235236.603   122102066.106        4003.642          39.000  
C 1  37892821.354   197317865.920         470.328          37.000  
C10  37455841.046   195042405.240        1121.899          38.000  
C 2  38388860.781   199900869.876         393.689          36.000  
C 5  40028875.224   208440857.3623        389.340          32.000  
G 1  25541221.819   134220043.041       -1422.666          35.000  
G22  23347577.632   122692338.784        2310.463          40.000  
G 4  21794802.473   114532531.759        3710.865          43.000  
C 4  39067692.932   203435729.0773        446.088          35.000  
C19  23629811.870   123046624.850        -474.052          45.000  
> 2017 12 19  9 18 22.0002584  0 23                     
G29  23901267.998   125601976.705        2905.988          39.000  
G10  23156369.227   121687550.714       -3188.038          39.000  
G12  23728509.647   124694170.581       -2994.122          39.000  
G14  20496288.599   107708717.056        1248.609          44.000  
G25  21168515.816   111241276.657       -1268.582          44.000  
G31  20624301.101   108381424.142        1336.025          47.000  
G32  20476039.139   107602300.089        -212.615          47.000  
G18  25130038.778                       -3109.008          24.000  
G 3  24444750.632   128458038.890        3306.595          37.000  
C 9  35916019.070   187024147.490         464.948          42.000  
C 6  36405590.905   189573476.017         -92.085          41.000  
C 7  36249578.682   188761068.405         754.888          41.000  
C 3  37507652.392   195312188.790         453.181          37.000  
G26  23234474.726   122098062.717        4003.061          39.000  
C 1  37892731.259   197317396.005         469.884          37.000  
C10  37455625.588   195041283.281        1121.788          38.000  
C 2  38388785.143   199900476.242         393.317          36.000  
C 5  40028800.572   208440468.1243        388.483          31.000  
G 1  25541492.768   134221465.879       -1423.228          35.000  
G22  23347137.825   122690028.311        2309.634          40.000  
G 4  21794096.489   114528821.061        3710.099          43.000  
C 4  39067607.277   203435282.9752        445.681          35.000  
C19  23629902.986   123047099.008        -474.811          45.000  
> 2017 12 19  9 18 23.0002584  0 23                     
G29  23900714.913   125599070.339        2905.835          39.000  
G10  23156975.884   121690738.312       -3188.154          39.000  
G12  23729079.239   124697164.373       -2994.040          39.000  
G14  20496051.084   107707468.153        1248.249          44.000  
G25  21168757.318   111242545.358       -1269.331          44.000  
G31  20624047.052   108380087.998        1335.628          47.000  
G32  20476079.493   107602512.625        -213.059          47.000  
G18  25130628.395                       -3108.732          24.000  
G 3  24444121.394   128454731.773        3306.813          37.000  
C 9  35915929.690   187023682.306         464.728          43.000  
C 6  36405608.835   189573567.933         -92.239          43.000  
C 7  36249433.566   188760313.262         754.861          43.000  
C 3  37507565.228   195311735.439         452.553          39.000  
G26  23233712.719   122094059.468        4002.768          38.000  
C 1  37892640.989   197316925.990         469.616          37.000  
C10  37455410.148   195040161.395        1121.434          39.000  
C 2  38388709.505   199900082.518         393.359          37.000  
C 5  40028725.877   208440078.8112        388.627          33.000  
G 1  25541763.788   134222888.982       -1423.394          35.000  
G22  23346698.333   122687718.236        2309.407          40.000  
G 4  21793390.445   114525110.669        3709.925          43.000  
C 4  39067521.693   203434836.8082        445.758          36.000  
C19  23629994.050   123047573.625        -475.218          46.000  
> 2017 12 19  9 18 24.0002584  0 23                     
G29  23900161.959   125596164.390        2905.627          39.000  
G10  23157582.349   121693926.197       -3187.459          39.000  
G12  23729649.181   124700158.638       -2994.342          39.000  
G14  20495813.569   107706219.765        1248.278          44.000  
G25  21168998.986   111243814.818       -1269.666          44.000  
G31  20623792.829   108378752.364        1335.528          47.000  
G32  20476120.187   107602725.777        -213.146          47.000  
G18  25131220.123                       -3109.674          23.000  
G 3  24443491.904   128451425.210        3306.965          37.000  
C 9  35915840.554   187023217.413         464.716          42.000  
C 6  36405626.460   189573660.155         -92.168          41.000  
C 7  36249288.598   188759558.400         754.672          42.000  
C 3  37507478.317   195311282.187         453.258          37.000  
G26  23232950.938   122090056.610        4003.017          38.000  
C 1  37892550.719   197316456.152         469.937          37.000  
C10  37455194.838   195039039.742        1121.609          39.000  
C 2  38388634.024   199899688.971         393.604          36.000  
C 5  40028651.050   208439689.5633        389.861          32.000  
G 1  25542034.816   134224312.568       -1423.441          35.000  
G22  23346258.701   122685408.826        2309.339          40.000  
G 4  21792684.313   114521400.854        3709.580          43.000  
C 4  39067435.951   203434390.7742        446.073          35.000  
C19  23630085.053   123048048.941        -475.459          45.000  
> 2017 12 19  9 18 25.0002584  0 23                     
G29  23899609.346   125593258.774        2905.298          39.000  
G10  23158189.032   121697114.391       -3188.170          39.000  
G12  23730218.782   124703153.227       -2994.948          39.000  
G14  20495576.106   107704971.812        1247.582          44.000  
G25  21169240.445   111245084.970       -1270.665          44.000  
G31  20623538.806   108377417.161        1334.813          47.000  
G32  20476160.759   107602939.477        -214.162          47.000  
G18  25131810.735                       -3110.044          21.000  
G 3  24442862.815   128448119.117        3305.362          37.000  
C 9  35915751.392   187022752.670         464.398          42.000  
C 6  36405644.172   189573752.571         -92.740          42.000  
C 7  36249143.796   188758803.695         754.437          42.000  
C 3  37507391.328   195310829.031         453.012          38.000  
G26  23232189.245   122086054.072        4002.196          38.000  
C 1  37892460.606   197315986.386         469.869          37.000  
C10  37454979.363   195037918.259        1121.231          39.000  
C 2  38388558.352   199899295.494         393.127          36.000  
C 5  40028576.564   208439301.4793        389.553          32.000  
G 1  25542305.713   134225736.587       -1423.615          35.000  
G22  23345819.243   122683099.977        2308.488          40.000  
G 4  21791978.696   114517691.493        3709.153          43.000  
C 4  39067350.402   203433944.8182        445.452          35.000  
C19  23630176.693   123048524.879        -476.324          45.000  
> 2017 12 19  9 18 26.0002584  0 23                     
G29  23899056.532   125590353.444        2905.304          39.000  
G10  23158795.715   121700302.748       -3188.147          39.000  
G12  23730788.593   124706148.091       -2994.927          39.000  
G14  20495338.670   107703724.232        1247.351          44.000  
G25  21169482.497   111246355.720       -1271.162          44.000  
G31  20623284.766   108376082.292        1334.835          47.000  
G32  20476201.592   107603153.630        -214.232          47.000  
G18  25132402.184                       -3109.595          21.000  
G 3  24442233.787   128444813.350        3305.636          37.000  
C 9  35915662.126   187022288.050         464.722          42.000  
C 6  36405661.980   189573845.113         -92.572          42.000  
C 7  36248998.846   188758049.088         754.750          42.000  
C 3  37507304.050   195310375.911         452.921          38.000  
G26  23231427.787   122082051.755        4002.345          39.000  
C 1  37892370.161   197315516.605         470.317          37.000  
C10  37454763.905   195036796.876        1121.346          38.000  
C 2  38388482.530   199898901.990         393.427          36.000  
C 5  40028501.755   208438912.4142        388.977          32.000  
G 1  25542576.636   134227160.949       -1424.225          35.000  
G22  23345379.803   122680791.657        2308.038          40.000  
G 4  21791272.983   114513982.555        3708.668          43.000  
C 4  39067264.625   203433498.8592        446.023          35.000  
C19  23630268.350   123049001.358        -476.857          45.000  
> 2017 12 19  9 18 27.0002584  0 23                     
G29  23898503.779   125587448.295        2905.255          39.000  
G10  23159402.694   121703491.188       -3188.520          39.000  
G12  23731358.578   124709143.163       -2995.088          39.000  
G14  20495101.356   107702476.920        1247.238          44.000  
G25  21169724.226   111247626.962       -1271.431          44.000  
G31  20623030.760   108374747.709        1334.384          47.000  
G32  20476242.661   107603368.168        -214.768          47.000  
G18  25132994.863                       -3110.091          20.000  
G 3  24441604.776   128441507.898        3305.352          37.000  
C 9  35915572.833   187021823.465         464.600          42.000  
C 6  36405679.858   189573937.714         -92.556          42.000  
C 7  36248853.913   188757294.494         754.611          42.000  
C 3  37507217.087   195309922.678         453.152          38.000  
G26  23230666.260   122078049.573        4002.364          39.000  
C 1  37892280.031   197315046.766         470.046          37.000  
C10  37454548.448   195035675.498        1121.628          38.000  
C 2  38388407.241   199898508.439         393.352          36.000  
C 5  40028427.094   208438523.2173        388.996          32.000  
G 1  25542847.839   134228585.568       -1424.779          34.000  
G22  23344940.581   122678483.740        2307.667          40.000  
G 4  21790567.122   114510273.915        3708.519          43.000  
C 4  39067178.744   203433052.8532        445.604          35.000  
C19  23630359.911   123049478.287        -477.294          45.000  
> 2017 12 19  9 18 28.0002584  0 23                     
G29  23897950.964   125584543.341        2904.846          39.000  
G10  23160009.395   121706679.700       -3188.608          39.000  
G12  23731928.834   124712138.417       -2995.465          39.000  
G14  20494864.146   107701229.899        1246.784          44.000  
G25  21169966.243   111248898.747       -1272.287          44.000  
G31  20622776.650   108373413.383        1334.033          47.000  
G32  20476283.643   107603583.084        -215.216          47.000  
G 3  24440975.626   128438202.723        3304.978          37.000  
C 9  35915483.671   187021358.879         464.435          41.000  
C 6  36405697.631   189574030.340         -92.795          40.000  
C 7  36248708.815   188756539.926         754.336          41.000  
C 3  37507129.993   195309469.337         453.432          35.000  
G26  23229904.985   122074047.558        4001.684          39.000  
C 1  37892189.796   197314576.816         470.321          35.000  
C10  37454333.103   195034554.105        1121.076          36.000  
C 2  38388331.612   199898114.753         393.697          35.000  
C 5  40028352.337   208438133.9672        388.494          32.000  
G 1  25543118.884   134230010.446       -1425.093          34.000  
G22  23344501.237   122676176.229        2307.084          40.000  
C20  24687408.962   128553815.5481      -2792.590          38.000  
G 4  21789861.452   114506565.608        3707.943          43.000  
C 4  39067093.063   203432606.208         446.473          34.000  
C19  23630451.595   123049955.673        -477.821          44.000  
> 2017 12 19  9 18 29.0002584  0 23                     
G29  23897398.063   125581638.880        2904.462          39.000  
G10  23160616.209   121709868.634       -3189.157          39.000  
G12  23732498.993   124715134.195       -2996.181          39.000  
G14  20494626.876   107699983.458        1246.271          44.000  
G25  21170208.740   111250171.341       -1272.886          44.000  
G31  20622522.846   108372079.631        1333.538          47.000  
G32  20476324.712   107603798.679        -215.876          47.000  
G 3  24440347.113   128434898.151        3304.398          38.000  
C 9  35915394.422   187020894.642         464.160          42.000  
C 6  36405715.325   189574123.316         -93.231          41.000  
C 7  36248563.838   188755785.661         754.152          41.000  
C 3  37507042.908   195309016.238         453.284          37.000  
G26  23229143.676   122070045.960        4001.695          39.000  
C 1  37892099.552   197314107.137         469.742          37.000  
C10  37454117.750   195033433.064        1121.046          38.000  
C 2  38388255.791   199897721.342         393.246          36.000  
C 5  40028277.467                         388.282          32.000  
G 1  25543390.218   134231435.872       -1425.108          33.000  
G22  23344062.198   122673869.430        2306.641          40.000  
C20  24687945.242   128556608.611       -2793.403          39.000  
G 4  21789155.888   114502857.906        3707.419          43.000  
C 4  39067007.566   203432160.366         445.786          35.000  
C19  23630543.540   123050433.820        -478.430          45.000  
> 2017 12 19  9 18 30.0002584  0 23                     
G29  23896845.345   125578734.762        2903.986          39.000  
G10  23161223.040   121713057.777       -3189.430          39.000  
G12  23733069.206   124718130.276       -2996.455          39.000  
G14  20494389.753   107698737.438        1245.839          44.000  
G25  21170451.324   111251444.593       -1273.608          44.000  
G31  20622269.207   108370746.286        1333.137          47.000  
G32  20476366.087   107604014.789        -216.277          47.000  
G 3  24439718.495   128431594.020        3304.014          38.000  
C 9  35915305.190   187020430.576         463.855          42.000  
C 6  36405733.317   189574216.479         -93.450          42.000  
C 7  36248418.818   188755031.530         754.313          42.000  
C 3  37506955.849   195308563.192         453.050          38.000  
G26  23228381.992   122066044.669        4001.298          39.000  
C 1  37892009.317   197313637.456         469.478          37.000  
C10  37453902.432   195032312.169        1120.693          38.000  
C 2  38388180.240   199897327.966         393.284          37.000  
C 5  40028202.719                         389.045          33.000  
G 1  25543661.412   134232861.688       -1425.471          33.000  
G22  23343623.116   122671563.201        2306.021          40.000  
C20  24688481.479   128559401.895       -2793.441          40.000  
G 4  21788450.550   114499150.667        3707.086          43.000  
C 4  39066921.702   203431714.503         446.035          35.000  
C19  23630635.494   123050912.573        -478.996          45.000  
> 2017 12 19  9 18 31.0002584  0 24                     
G29  23896292.836   125575830.952        2903.992          38.000  
G10  23161829.810   121716247.133       -3188.844          39.000  
G12  23733639.505   124721126.704       -2996.699          39.000  
G14  20494152.788   107697491.841        1245.300          44.000  
G25  21170693.734   111252718.515       -1274.522          44.000  
G31  20622015.289   108369413.354        1332.679          47.000  
G32  20476407.156   107604231.441        -216.850          47.000  
G18  25135361.749                       -3108.839          17.000  
G 3  24439089.825   128428290.308        3303.276          38.000  
C 9  35915216.098   187019966.655         463.727          43.000  
C 6  36405750.976   189574309.825         -93.463          42.000  
C 7  36248274.051   188754277.564         753.976          42.000  
C 3  37506869.069   195308109.7463        452.513          38.000  
G26  23227620.586   122062043.655        4001.285          39.000  
C 1  37891919.152   197313165.8563        469.758          37.000  
C10  37453687.419   195031191.430        1120.547          39.000  
C 2  38388104.742   199896934.621         393.619          37.000  
C 5  40028127.805   208436965.0033        388.555          32.000  
G 1  25543932.701   134234287.905       -1426.340          34.000  
G22  23343184.287   122669257.516        2305.529          40.000  
C20  24689018.282   128562195.422       -2793.724          40.000  
G 4  21787745.203   114495443.894        3706.504          43.000  
C 4  39066836.275   203431268.2293        445.814          35.000  
C19  23630727.474   123051391.928        -479.742          46.000  
> 2017 12 19  9 18 32.0002584  0 23                     
G29  23895740.161   125572927.422        2903.528          38.000  
G10  23162436.502   121719436.669       -3189.228          39.000  
G12  23734209.752   124724123.402       -2996.981          39.000  
G14  20493915.840   107696246.597        1244.980          44.000  
G25  21170936.135   111253992.997       -1274.736          44.000  
G31  20621761.685   108368080.745        1332.408          47.000  
G32  20476448.356   107604448.528        -217.273          48.000  
G 3  24438461.530   128424986.965        3302.705          38.000  
C 9  35915126.840   187019502.821         463.910          43.000  
C 6  36405769.168   189574403.300         -93.722          42.000  
C 7  36248129.424   188753523.679         753.901          42.000  
C 3  37506781.923   195307656.7242        453.385          38.000  
G26  23226859.181   122058042.892        4000.859          39.000  
C 1  37891828.891   197312696.2562        469.553          37.000  
C10  37453472.083   195030070.748        1120.984          39.000  
C 2  38388029.366   199896541.282         393.890          36.000  
C 5  40028053.197   208436577.0162        389.784          32.000  
G 1  25544204.131   134235714.498       -1427.194          33.000  
G22  23342745.606   122666952.305        2305.408          40.000  
C20  24689554.946   128564989.142       -2793.621          40.000  
G 4  21787039.778   114491737.489        3706.324          43.000  
C 4  39066750.943   203430822.4602        445.603          36.000  
C19  23630819.550   123051871.791        -480.140          46.000  
> 2017 12 19  9 18 33.0002584  0 23                     
G29  23895187.496   125570024.206        2902.875          38.000  
G10  23163043.316   121722626.452       -3190.144          39.000  
G12  23734780.226   124727120.410       -2997.102          39.000  
G14  20493678.971   107695001.757        1244.602          44.000  
G25  21171178.876   111255268.150       -1275.427          44.000  
G31  20621508.168   108366748.549        1331.986          47.000  
G32  20476489.617   107604666.130        -218.009          48.000  
G 3  24437833.191   128421683.998        3302.554          38.000  
C 9  35915037.932   187019039.168         463.611          39.000  
C 6  36405787.011   189574496.927         -93.567          38.000  
C 7  36247984.666   188752769.935         753.756          38.000  
C 3  37506694.977   195307203.7942        453.019          35.000  
G26  23226097.828   122054042.381        4000.138          38.000  
C 1  37891738.813   197312226.7102        469.389          35.000  
C10  37453256.878   195028950.233        1120.568          35.000  
C 2  38387953.920   199896148.001         393.501          34.000  
C 5  40027978.554   208436188.0992        389.536          31.000  
G 1  25544475.473   134237141.421       -1427.175          33.000  
G22  23342307.125   122664647.678        2304.246          40.000  
C20  24690091.157   128567783.088       -2794.175          37.000  
G 4  21786334.475   114488031.557        3705.637          43.000  
C 4  39066665.358   203430376.6992        445.565          32.000  
C19  23630911.835   123052352.246        -480.789          42.000  
> 2017 12 19  9 18 34.0002584  0 23                     
G29  23894634.978   125567121.236        2902.869          38.000  
G10  23163650.583   121725816.338       -3189.845          39.000  
G12  23735350.664   124730117.666       -2997.333          40.000  
G14  20493442.006   107693757.259        1244.379          44.000  
G25  21171421.774   111256543.891       -1276.219          44.000  
G31  20621254.564   108365416.665        1331.862          47.000  
G32  20476531.087   107604884.167        -218.102          47.000  
G 3  24437204.730   128418381.427        3302.242          38.000  
C 9  35914948.900   187018575.579         463.678          42.000  
C 6  36405805.028   189574590.660         -93.756          41.000  
C 7  36247839.907   188752016.265         753.709          41.000  
C 3  37506608.057   195306750.8192        452.965          37.000  
G26  23225336.492   122050042.064        4000.209          39.000  
C 1  37891648.473   197311757.1442        469.300          36.000  
C10  37453041.682   195027829.785        1120.093          38.000  
C 2  38387878.413   199895754.677         393.589          35.000  
C 5  40027904.129   208435800.1773        388.416          32.000  
G 1  25544746.955   134238568.645       -1426.933          33.000  
G22  23341868.505   122662343.488        2304.087          40.000  
C20  24690627.707   128570577.199       -2793.972          39.000  
G 4  21785629.164   114484325.990        3705.288          43.000  
C 4  39066579.625   203429930.9243        445.771          34.000  
C19  23631004.051   123052833.204        -481.147          45.000  
> 2017 12 19  9 18 35.0002584  0 24                     
G29  23894082.356   125564218.452        2902.405          39.000  
G10  23164257.833   121729006.331       -3190.359          39.000  
G12  23735921.025   124733115.108       -2997.485          40.000  
G14  20493205.363   107692513.034        1244.013          44.000  
G25  21171664.812   111257820.123       -1276.716          44.000  
G31  20621001.178   108364085.058        1331.255          47.000  
G32  20476572.601   107605102.586        -218.874          47.000  
G18  25137725.913                       -3111.130          17.000  
G 3  24436576.418   128415079.120        3302.034          38.000  
C 9  35914859.843   187018112.016         463.483          42.000  
C 6  36405822.827   189574684.449         -94.098          41.000  
C 7  36247695.140   188751262.604         753.347          42.000  
C 3  37506521.016   195306297.7622        452.971          37.000  
G26  23224575.584   122046041.917        3999.492          39.000  
C 1  37891558.421   197311287.4752        469.453          37.000  
C10  37452826.800   195026709.338        1120.299          38.000  
C 2  38387802.871   199895361.295         393.584          36.000  
C 5  40027829.223   208435411.1632        389.017          32.000  
G 1  25545018.951   134239996.156       -1427.904          33.000  
G22  23341430.042   122660039.713        2303.522          40.000  
C20  24691164.406   128573371.432       -2794.437          39.000  
G 4  21784924.280   114480620.734        3704.915          43.000  
C 4  39066493.962   203429485.0712        445.803          35.000  
C19  23631096.363   123053314.646        -481.929          45.000  
> 2017 12 19  9 18 36.0002584  0 24                     
G29  23893530.248   125561316.065        2902.368          38.000  
G10  23164865.031   121732196.616       -3190.351          39.000  
G12  23736491.464   124736112.966       -2997.751          39.000  
G14  20492968.477   107691269.296        1243.759          44.000  
G25  21171907.719   111259097.088       -1277.322          44.000  
G31  20620747.906   108362753.926        1331.002          47.000  
G32  20476614.150   107605321.579        -219.201          47.000  
G18  25138318.235                       -3110.642          16.000  
G 3  24435947.896   128411777.290        3301.559          38.000  
C 9  35914770.926   187017648.695         463.300          42.000  
C 6  36405841.377   189574778.492         -94.434          41.000  
C 7  36247550.548   188750509.128         753.455          42.000  
C 3  37506433.983   195305844.8342        452.926          37.000  
G26  23223814.458   122042042.096        3999.961          39.000  
C 1  37891468.177   197310817.9462        469.575          37.000  
C10  37452611.665   195025589.144        1120.170          38.000  
C 2  38387727.468   199894968.030         393.542          36.000  
C 5  40027754.563   208435021.2763        389.241          32.000  
G 1  25545290.477   134241424.111       -1427.780          33.000  
G22  23340991.492   122657736.577        2303.121          40.000  
C20  24691701.035   128576165.991       -2794.789          40.000  
G 4  21784219.116   114476916.002        3704.517          43.000  
C 4  39066408.247   203429039.3102        446.405          35.000  
C19  23631188.875   123053796.726        -482.193          45.000  
> 2017 12 19  9 18 37.0002584  0 24                     
G29  23892977.504   125558413.897        2902.173          39.000  
G10  23165472.142   121735387.041       -3190.543          39.000  
G12  23737062.103   124739111.064       -2998.249          40.000  
G14  20492731.965   107690025.893        1243.286          44.000  
G25  21172150.888   111260374.621       -1277.755          44.000  
G31  20620494.816   108361423.106        1330.670          47.000  
G32  20476655.996   107605541.018        -219.715          48.000  
G18  25138911.368                       -3110.642          15.000  
G 3  24435319.662   128408475.836        3301.475          38.000  
C 9  35914681.764   187017185.426         463.373          42.000  
C 6  36405859.246   189574872.610         -94.348          41.000  
C 7  36247406.008   188749755.732         753.417          42.000  
C 3  37506346.993   195305391.367         452.730          37.000  
G26  23223053.349   122038042.480        3999.667          39.000  
C 1  37891377.986   197310348.351         469.545          37.000  
C10  37452396.696   195024468.970        1120.325          38.000  
C 2  38387651.996   199894574.703         393.478          36.000  
C 5  40027679.815   208434632.3173        389.269          32.000  
G 1  25545562.220   134242852.393       -1428.296          33.000  
G22  23340552.986   122655433.887        2302.603          40.000  
C20  24692237.603   128578960.683       -2794.901          40.000  
G 4  21783514.346   114473211.634        3704.247          43.000  
C 4  39066322.697   203428593.5922        445.751          35.000  
C19  23631281.745   123054279.319        -482.733          45.000  
> 2017 12 19  9 18 38.0002584  0 24                     
G29  23892425.257   125555512.092        2901.569          39.000  
G10  23166079.130   121738577.671       -3190.876          39.000  
G12  23737632.603   124742109.490       -2998.703          39.000  
G14  20492495.209   107688782.911        1242.815          44.000  
G25  21172393.935   111261652.809       -1278.473          44.000  
G31  20620241.605   108360092.691        1330.358          47.000  
G32  20476697.946   107605760.967        -220.162          47.000  
G18  25139502.084                       -3110.642          15.000  
G 3  24434691.401   128405174.808        3300.907          38.000  
C 9  35914592.864   187016722.348         463.159          42.000  
C 6  36405877.674   189574966.900         -94.155          42.000  
C 7  36247261.468   188749002.505         753.084          42.000  
C 3  37506260.257   195304938.431         453.313          37.000  
G26  23222292.511   122034043.168        3999.248          39.000  
C 1  37891287.855   197309878.860         469.259          37.000  
C10  37452181.605   195023348.966        1119.921          38.000  
C 2  38387576.402   199894181.454         393.190          36.000  
C 5  40027605.093   208434243.4922        388.489          32.000  
G 1  25545833.824   134244281.034       -1428.368          33.000  
G22  23340114.846   122653131.766        2301.976          40.000  
C20  24692774.442   128581755.628       -2795.205          39.000  
G 4  21782809.488   114469507.724        3703.952          43.000  
C 4  39066237.121   203428147.9322        445.121          35.000  
C19  23631374.336   123054762.518        -483.456          45.000  
> 2017 12 19  9 18 39.0002584  0 24                     
G29  23891873.045   125552610.577        2901.099          39.000  
G10  23166686.406   121741768.532       -3190.972          39.000  
G12  23738203.225   124745108.218       -2999.457          39.000  
G14  20492259.038   107687540.322        1242.186          44.000  
G25  21172637.217   111262931.632       -1279.254          44.000  
G31  20619988.437   108358762.675        1329.662          47.000  
G32  20476739.783   107605981.407        -220.653          47.000  
G18  25140093.655                       -3107.753          15.000  
G 3  24434063.220   128401874.165        3300.444          38.000  
C 9  35914504.077   187016259.395         462.817          42.000  
C 6  36405895.656   189575061.388         -94.889          42.000  
C 7  36247116.875   188748249.386         752.917          42.000  
C 3  37506173.285   195304485.572         452.592          37.000  
G26  23221531.507   122030044.108        3998.712          39.000  
C 1  37891197.961   197309409.352         469.755          37.000  
C10  37451966.714   195022229.089        1119.908          38.000  
C 2  38387500.799   199893788.231         393.101          36.000  
C 5  40027530.310   208433853.6843        387.621          32.000  
G 1  25546105.812   134245710.060       -1428.809          33.000  
G22  23339677.229   122650830.185        2301.279          40.000  
C20  24693311.088   128584550.795       -2795.184          39.000  
G 4  21782104.551   114465804.259        3703.034          43.000  
C 4  39066151.659   203427702.2492        445.016          35.000  
C19  23631467.302   123055246.280        -484.231          45.000  
> 2017 12 19  9 18 40.0002584  0 23                     
G29  23891321.051   125549709.502        2900.848          39.000  
G10  23167293.735   121744959.739       -3191.463          39.000  
G12  23738774.135   124748107.387       -2999.539          39.000  
G14  20492022.780   107686298.284        1241.710          44.000  
G25  21172880.778   111264211.244       -1280.212          44.000  
G31  20619735.444   108357433.181        1329.186          47.000  
G32  20476781.698   107606202.497        -221.487          47.000  
C20  24693847.944   128587346.332       -2795.599          39.000  
G 3  24433435.335   128398574.103        3299.626          38.000  
C 9  35914415.186   187015796.730         462.537          42.000  
C 6  36405913.778   189575156.157         -94.910          41.000  
C 7  36246972.230   188747496.555         752.391          42.000  
C 3  37506086.496   195304032.863         452.672          37.000  
G26  23220770.556   122026045.468        3998.289          39.000  
C 1  37891107.769   197308940.066         469.227          37.000  
C10  37451751.710   195021109.511        1118.813          38.000  
C 2  38387425.292   199893395.203         392.919          36.000  
C 5  40027455.780   208433465.9682        388.751          32.000  
G 1  25546377.774   134247139.616       -1428.991          32.000  
G22  23339239.822   122648529.263        2300.498          40.000  
G 4  21781399.868   114462101.373        3702.481          43.000  
C 4  39066066.109   203427256.233         445.233          35.000  
C19  23631560.294   123055730.769        -484.994          45.000  
> 2017 12 19  9 18 41.0002584  0 23                     
G29  23890768.882   125546808.773        2900.592          38.000  
G10  23167901.064   121748151.169       -3192.012          39.000  
G12  23739344.906   124751106.893       -2999.794          39.000  
G14  20491786.626   107685056.656        1241.301          44.000  
G25  21173124.392   111265491.489       -1280.572          44.000  
G31  20619482.346   108356104.095        1328.665          47.000  
G32  20476823.963   107606424.095        -222.018          47.000  
C20  24694384.905   128590142.122       -2796.036          39.000  
G 3  24432807.328   128395274.430        3299.206          38.000  
C 9  35914326.277   187015334.223         462.189          42.000  
C 6  36405931.900   189575251.120         -95.409          41.000  
C 7  36246827.638   188746743.853         752.390          42.000  
C 3  37505999.577   195303580.234         452.316          37.000  
G26  23220009.787   122022047.092        3997.879          39.000  
C 1  37891017.726   197308470.821         469.025          37.000  
C10  37451536.680   195019990.059        1119.065          38.000  
C 2  38387350.099   199893002.180         393.393          36.000  
C 5  40027381.399   208433078.3683        388.623          32.000  
G 1  25546649.578   134248569.575       -1430.556          32.000  
G22  23338802.109   122646228.907        2299.948          40.000  
G 4  21780695.298   114458398.938        3702.048          43.000  
C 4  39065980.621   203426810.843         444.568          35.000  
C19  23631653.260   123056215.836        -485.630          45.000  
> 2017 12 19  9 18 42.0002584  0 23                     
G29  23890216.853   125543908.241        2900.360          38.000  
G10  23168508.296   121751342.678       -3191.520          39.000  
G12  23739915.668   124754106.616       -2999.996          39.000  
G14  20491550.315   107683815.329        1241.229          44.000  
G25  21173368.198   111266772.293       -1281.124          44.000  
G31  20619229.405   108354775.301        1328.508          47.000  
G32  20476866.367   107606646.096        -222.206          47.000  
C20  24694921.970   128592938.019       -2795.822          39.000  
G 3  24432179.312   128391975.092        3299.208          38.000  
C 9  35914237.612   187014871.777         462.293          42.000  
C 6  36405950.406   189575346.136         -95.214          42.000  
C 7  36246683.185   188745991.190         752.572          42.000  
C 3  37505912.605   195303127.504         452.948          37.000  
G26  23219248.687   122018048.886        3998.046          39.000  
C 1  37890927.587   197308001.511         469.715          37.000  
C10  37451321.675   195018870.624        1119.523          38.000  
C 2  38387274.679   199892609.143         393.191          36.000  
C 5  40027306.555   208432688.7093        388.678          32.000  
G 1  25546921.828   134249999.778       -1430.167          32.000  
G22  23338364.755   122643928.973        2299.881          40.000  
G 4  21779990.771   114454696.843        3701.762          43.000  
C 4  39065895.114   203426365.303         445.111          35.000  
C19  23631746.410   123056701.396        -485.964          45.000  
> 2017 12 19  9 18 43.0002584  0 23                     
G29  23889664.920   125541008.017        2900.586          38.000  
G10  23169115.651   121754534.436       -3191.519          39.000  
G12  23740486.490   124757106.650       -2999.642          39.000  
G14  20491314.126   107682574.413        1241.115          44.000  
G25  21173612.126   111268053.716       -1281.229          44.000  
G31  20618976.473   108353446.886        1328.633          47.000  
G32  20476908.675   107606868.603        -222.288          47.000  
C20  24695458.809   128595734.169       -2795.983          39.000  
G 3  24431551.627   128388676.159        3298.661          38.000  
C 9  35914148.852   187014409.461         462.622          42.000  
C 6  36405968.502   189575441.317         -94.758          41.000  
C 7  36246538.680   188745238.673         752.502          42.000  
C 3  37505825.642   195302674.842         453.364          37.000  
G26  23218487.683   122014050.952        3998.081          39.000  
C 1  37890837.395   197307532.255         469.668          37.000  
C10  37451106.697   195017751.392        1119.361          38.000  
C 2  38387199.180   199892216.158         393.277          36.000  
C 5  40027232.182   208432301.0923        388.440          32.000  
G 1  25547193.981   134251430.398       -1430.222          32.000  
G22  23337927.199   122641629.592        2299.451          40.000  
G 4  21779286.245   114450995.181        3701.977          43.000  
C 4  39065809.382   203425919.842         446.084          35.000  
C19  23631839.873   123057187.524        -486.022          45.000  
> 2017 12 19  9 18 44.0002584  0 23                     
G29  23889112.970   125538108.002        2899.695          38.000  
G10  23169723.093   121757726.282       -3191.990          39.000  
G12  23741057.496   124760106.893       -3000.514          39.000  
G14  20491077.972   107681333.776        1240.584          44.000  
G25  21173856.202   111269335.680       -1282.230          44.000  
G31  20618723.802   108352118.756        1327.961          47.000  
G32  20476951.070   107607091.495        -223.120          48.000  
G 3  24430923.908   128385377.526        3298.429          38.000  
C 9  35914059.969   187013947.194         462.103          42.000  
C 6  36405987.104   189575536.559         -95.472          42.000  
C 7  36246393.974   188744486.154         752.451          42.000  
C 3  37505738.469   195302222.094         452.862          38.000  
G26  23217726.871   122010053.189        3997.572          39.000  
C 1  37890747.152   197307062.904         469.480          37.000  
C10  37450891.397   195016632.130        1119.112          38.000  
C 2  38387123.577   199891823.063         393.334          36.000  
C 5  40027157.425   208431912.3322        389.301          32.000  
G 1  25547466.135   134252861.269       -1431.224          32.000  
G22  23337489.696   122639330.628        2298.577          40.000  
C20  24695995.560   128598530.448       -2796.682          39.000  
G 4  21778582.033   114447293.864        3700.980          43.000  
C 4  39065723.727   203425474.7883        445.407          35.000  
C19  23631933.354   123057674.116        -486.847          45.000  
> 2017 12 19  9 18 45.0002584  0 23                     
G29  23888560.845   125535208.175        2899.463          38.000  
G10  23170330.518   121760918.182       -3191.863          39.000  
G12  23741628.537   124763107.314       -3000.299          39.000  
G14  20490841.906   107680093.427        1240.311          44.000  
G25  21174100.383   111270618.154       -1282.734          44.000  
G31  20618471.097   108350790.878        1327.904          47.000  
G32  20476993.500   107607314.767        -223.447          48.000  
G 3  24430296.058   128382079.191        3298.090          38.000  
C 9  35913971.060   187013484.937         462.152          42.000  
C 6  36406005.235   189575631.843         -95.446          41.000  
C 7  36246249.425   188743733.654         752.964          42.000  
C 3  37505651.436   195301769.256         453.061          37.000  
G26  23216966.225   122006055.539        3997.675          39.000  
C 1  37890656.917   197306593.479         469.745          37.000  
C10  37450676.663   195015512.887        1119.443          38.000  
C 2  38387047.992   199891429.881         393.059          36.000  
C 5  40027082.982   208431524.5662        388.675          32.000  
G 1  25547738.542   134254292.349       -1430.866          32.000  
G22  23337052.271   122637032.055        2298.508          40.000  
C20  24696532.669   128601326.783       -2796.351          39.000  
G 4  21777877.882   114443592.838        3700.994          43.000  
C 4  39065638.003   203425029.1752        445.435          35.000  
C19  23632026.791   123058161.161        -487.136          45.000  
> 2017 12 19  9 18 46.0002584  0 23                     
G29  23888008.607   125532308.422        2899.683          38.000  
G10  23170937.969   121764110.074       -3191.611          39.000  
G12  23742199.508   124766107.834       -3000.709          39.000  
G14  20490605.892   107678853.256        1240.001          44.000  
G25  21174344.398   111271901.028       -1283.237          44.000  
G31  20618218.418   108349463.172        1327.618          47.000  
G32  20477036.079   107607538.308        -223.751          48.000  
C20  24697069.822   128604123.172       -2796.649          39.000  
G 3  24429668.348   128378781.013        3297.778          37.000  
C 9  35913882.396   187013022.585         462.128          42.000  
C 6  36406023.688   189575727.065         -95.375          42.000  
C 7  36246104.989   188742981.089         752.526          42.000  
C 3  37505564.560   195301316.247         453.080          37.000  
G26  23216205.552   122002057.959        3997.570          39.000  
C 1  37890566.830   197306123.866         469.547          37.000  
C10  37450461.816   195014393.525        1119.843          38.000  
C 2  38386972.362   199891036.529         393.253          36.000  
C 5  40027008.217   208431135.5413        389.604          32.000  
G 1  25548010.861   134255723.633       -1431.894          32.000  
G22  23336614.899   122634733.813        2298.119          40.000  
G 4  21777173.626   114439892.050        3700.563          43.000  
C 4  39065552.453   203424583.3712        445.838          35.000  
C19  23632120.307   123058648.575        -487.783          45.000  
> 2017 12 19  9 18 47.0002584  0 23                     
G29  23887456.805   125529408.992        2898.755          38.000  
G10  23171545.725   121767302.188       -3192.505          39.000  
G12  23742770.637   124769108.664       -3001.450          39.000  
G14  20490369.912   107677613.488        1239.003          44.000  
G25  21174588.771   111273184.562       -1284.276          44.000  
G31  20617965.957   108348135.853        1326.756          47.000  
G32  20477078.858   107607762.358        -224.649          48.000  
G 3  24429040.742   128375483.266        3297.059          37.000  
C 9  35913793.792   187012560.402         461.646          42.000  
C 6  36406041.793   189575822.449         -95.853          42.000  
C 7  36245960.414   188742228.637         751.936          42.000  
C 3  37505477.248   195300863.270         452.568          37.000  
G26  23215445.124   121998060.628        3996.919          39.000  
C 1  37890476.612   197305654.314         469.007          37.000  
C10  37450246.812   195013274.326        1118.777          39.000  
C 2  38386896.445   199890643.222         392.836          36.000  
C 5  40026933.565   208430746.6122        389.078          32.000  
G 1  25548283.442   134257155.243       -1432.089          32.000  
G22  23336177.579   122632436.129        2296.786          40.000  
C20  24697606.904   128606919.753       -2797.071          39.000  
G 4  21776469.536   114436191.694        3699.720          43.000  
C 4  39065466.886   203424137.5782        445.638          35.000  
C19  23632214.232   123059136.556        -488.743          45.000  
> 2017 12 19  9 18 48.0002584  0 23                     
G29  23886905.029   125526509.793        2898.926          38.000  
G10  23172153.184   121770494.450       -3192.552          39.000  
G12  23743341.852   124772109.706       -3001.173          39.000  
G14  20490134.177   107676374.027        1239.301          44.000  
G25  21174833.301   111274468.629       -1284.615          44.000  
G31  20617713.583   108346808.852        1326.695          47.000  
G32  20477121.602   107607986.836        -224.789          48.000  
G 3  24428412.961   128372185.853        3297.168          37.000  
C 9  35913705.049   187012098.272         461.926          42.000  
C 6  36406060.028   189575917.943         -95.946          42.000  
C 7  36245816.040   188741476.240         752.221          42.000  
C 3  37505390.276   195300410.261         452.819          37.000  
G26  23214684.513   121994063.505        3996.947          39.000  
C 1  37890386.316   197305184.700         469.250          37.000  
C10  37450031.973   195012155.202        1118.736          38.000  
C 2  38386820.938   199890249.860         393.247          36.000  
C 5  40026858.826   208430357.6552        389.357          32.000  
G 1  25548555.727   134258587.193       -1432.330          32.000  
G22  23335740.129   122630138.875        2296.723          40.000  
C20  24698143.979   128609716.492       -2796.611          39.000  
G 4  21775765.515   114432491.708        3699.575          43.000  
C 4  39065381.206   203423691.7762        445.855          35.000  
C19  23632308.001   123059625.036        -488.857          45.000  
> 2017 12 19  9 18 49.0002584  0 23                     
G29  23886353.672   125523610.866        2898.529          38.000  
G10  23172760.461   121773686.874       -3192.495          39.000  
G12  23743912.849   124775111.049       -3001.455          39.000  
G14  20489898.198   107675134.945        1238.865          44.000  
G25  21175077.734   111275753.313       -1285.022          44.000  
G31  20617461.000   108345482.189        1326.492          47.000  
G32  20477164.417   107608211.777        -225.130          48.000  
G 3  24427785.382   128368888.815        3296.920          37.000  
C 9  35913616.192   187011636.257         461.938          42.000  
C 6  36406078.316   189576013.533         -95.568          42.000  
C 7  36245671.552   188740723.945         752.347          42.000  
C 3  37505303.392   195299957.233         453.096          37.000  
G26  23213924.006   121990066.623        3996.893          39.000  
C 1  37890296.360   197304715.097         469.771          37.000  
C10  37449816.908   195011036.148        1118.962          38.000  
C 2  38386745.728   199889856.503         393.401          36.000  
C 5  40026784.156   208429968.7113        388.106          32.000  
G 1  25548828.098   134260019.456       -1432.020          32.000  
G22  23335302.983   122627842.121        2296.435          40.000  
C20  24698680.965   128612513.446       -2797.110          39.000  
G 4  21775061.678   114428792.110        3699.257          43.000  
C 4  39065295.525   203423245.9692        445.957          35.000  
C19  23632401.857   123060114.057        -489.253          45.000  
> 2017 12 19  9 18 50.0002584  0 23                     
G29  23885802.210   125520712.192        2898.212          38.000  
G10  23173367.850   121776879.424       -3192.679          39.000  
G12  23744484.100   124778112.632       -3001.641          39.000  
G14  20489662.577   107673896.187        1238.592          44.000  
G25  21175322.317   111277038.570       -1285.692          44.000  
G31  20617208.565   108344155.860        1326.109          47.000  
G32  20477207.283   107608437.148        -225.500          48.000  
G 3  24427157.663   128365592.103        3296.632          37.000  
C 9  35913527.737   187011174.335         461.798          42.000  
C 6  36406096.918   189576109.237         -95.646          41.000  
C 7  36245527.021   188739971.710         752.172          42.000  
C 3  37505216.525   195299504.193         453.078          38.000  
G26  23213163.500   121986069.925        3996.387          39.000  
C 1  37890206.151   197304245.434         469.800          37.000  
C10  37449602.262   195009917.167        1118.787          38.000  
C 2  38386670.212   199889463.144         393.277          36.000  
C 5  40026709.391   208429579.6592        388.572          32.000  
G 1  25549100.749   134261452.018       -1432.487          32.000  
G22  23334866.108   122625545.855        2295.830          40.000  
C20  24699218.162   128615310.553       -2797.298          39.000  
G 4  21774357.658   114425092.884        3699.094          43.000  
C 4  39065209.862   203422800.1142        445.930          35.000  
C19  23632495.879   123060603.597        -489.839          45.000  
> 2017 12 19  9 18 51.0002584  0 23                     
G29  23885250.888   125517813.912        2897.680          38.000  
G10  23173975.127   121780072.321       -3193.643          39.000  
G12  23745055.359   124781114.626       -3002.437          39.000  
G14  20489426.850   107672657.954        1237.645          44.000  
G25  21175566.594   111278324.555       -1286.482          44.000  
G31  20616956.348   108342830.026        1325.217          47.000  
G32  20477250.289   107608663.140        -226.668          48.000  
G 3  24426529.935   128362295.927        3295.501          36.000  
C 9  35913439.326   187010712.649         461.121          42.000  
C 6  36406115.258   189576205.225         -96.555          41.000  
C 7  36245382.603   188739219.718         751.441          42.000  
C 3  37505129.378   195299051.293         452.318          38.000  
G26  23212403.098   121982073.621        3995.561          39.000  
C 1  37890115.969   197303775.950         469.050          37.000  
C10  37449387.432   195008798.412        1118.535          38.000  
C 2  38386594.591   199889069.884         392.774          36.000  
C 5  40026634.678   208429189.7983        388.091          32.000  
G 1  25549373.575   134262885.107       -1433.999          31.000  
G22  23334429.608   122623250.209        2295.290          40.000  
C20  24699755.410   128618107.997       -2797.858          39.000  
G 4  21773653.821   114421394.218        3698.067          43.000  
C 4  39065124.408   203422353.939         445.348          35.000  
C19  23632590.058   123061093.811        -490.989          45.000  
> 2017 12 19  9 18 52.0002584  0 23                     
G29  23884699.679   125514915.926        2897.797          39.000  
G10  23174582.665   121783265.341       -3193.259          39.000  
G12  23745626.583   124784116.895       -3002.278          39.000  
G14  20489191.421   107671420.079        1237.706          44.000  
G25  21175811.220   111279611.150       -1286.835          44.000  
G31  20616704.263   108341504.550        1325.198          47.000  
G32  20477293.522   107608889.582        -226.755          48.000  
G 3  24425902.660   128359000.110        3295.701          36.000  
C 9  35913350.679   187010251.088         461.450          42.000  
C 6  36406133.651   189576301.334         -96.344          42.000  
C 7  36245238.473   188738467.814         751.806          42.000  
C 3  37505042.241   195298598.411         452.434          38.000  
G26  23211642.923   121978077.538        3995.847          39.000  
C 1  37890025.725   197303306.471         469.313          37.000  
C10  37449172.681   195007679.767        1118.648          39.000  
C 2  38386518.892   199888676.648         392.753          36.000  
C 5  40026559.772   208428799.9353        388.467          32.000  
G 1  25549646.260   134264318.519       -1434.239          31.000  
G22  23333992.882   122620955.085        2294.956          40.000  
C20  24700292.667   128620905.639       -2797.973          39.000  
G 4  21772949.958   114417695.952        3698.035          43.000  
C 4  39065038.893   203421908.235         445.879          35.000  
C19  23632684.315   123061584.564        -490.857          45.000  
> 2017 12 19  9 18 53.0002584  0 23                     
G29  23884148.139   125512018.122        2897.565          39.000  
G10  23175190.386   121786458.468       -3193.337          39.000  
G12  23746197.790   124787119.344       -3002.437          39.000  
G14  20488956.070   107670182.466        1237.528          44.000  
G25  21176056.107   111280898.269       -1287.380          44.000  
G31  20616452.281   108340179.321        1324.947          47.000  
G32  20477336.851   107609116.398        -227.159          48.000  
G 3  24425275.290   128355704.586        3295.205          36.000  
C 9  35913262.058   187009789.537         461.481          42.000  
C 6  36406151.869   189576397.473         -96.116          42.000  
C 7  36245094.203   188737715.914         752.221          42.000  
C 3  37504955.277   195298145.391         453.052          37.000  
G26  23210882.337   121974081.597        3995.768          39.000  
C 1  37889935.682   197302836.893         469.539          37.000  
C10  37448958.166   195006561.145        1118.777          39.000  
C 2  38386443.472   199888283.285         393.721          36.000  
C 5  40026485.277   208428411.9522        388.792          32.000  
G 1  25549919.138   134265752.109       -1433.212          32.000  
G22  23333556.112   122618660.359        2294.408          40.000  
C20  24700829.933   128623703.357       -2797.811          39.000  
G 4  21772246.199   114413997.997        3697.780          43.000  
C 4  39064953.344   203421462.448         445.850          35.000  
C19  23632778.730   123062075.779        -491.625          45.000  
> 2017 12 19  9 18 54.0002584  0 23                     
G29  23883597.070   125509120.605        2897.503          39.000  
G10  23175798.046   121789651.769       -3192.916          39.000  
G12  23746769.214   124790122.090       -3002.598          39.000  
G14  20488720.404   107668945.244        1237.244          44.000  
G25  21176301.030   111282185.986       -1287.847          44.000  
G31  20616200.449   108338854.451        1324.934          47.000  
G32  20477379.857   107609343.669        -227.122          48.000  
C20  24701367.383   128626501.290       -2798.066          39.000  
G 3  24424648.269   128352409.434        3295.420          37.000  
C 9  35913173.297   187009328.086         461.957          42.000  
C 6  36406170.628   189576493.746         -96.130          42.000  
C 7  36244949.907   188736964.140         752.275          42.000  
C 3  37504868.436   195297692.423         453.054          38.000  
G26  23210122.066   121970085.881        3995.849          39.000  
C 1  37889845.604   197302367.326         469.649          37.000  
C10  37448743.589   195005442.594        1119.135          39.000  
C 2  38386367.974   199887889.967         393.768          36.000  
C 5  40026410.486   208428023.0383        389.246          32.000  
G 1  25550192.374   134267186.129       -1434.046          32.000  
G22  23333119.385   122616366.138        2294.419          40.000  
G 4  21771542.519   114410300.448        3697.725          43.000  
C 4  39064867.715   203421016.677         445.825          35.000  
C19  23632873.065   123062567.522        -491.593          45.000  
> 2017 12 19  9 18 55.0002584  0 23                     
G29  23883045.931   125506223.356        2897.333          39.000  
G10  23176405.811   121792845.230       -3193.293          39.000  
G12  23747340.936   124793125.103       -3002.705          39.000  
G14  20488485.149   107667708.396        1236.527          44.000  
G25  21176546.083   111283474.312       -1288.562          44.000  
G31  20615948.223   108337529.946        1324.525          47.000  
G32  20477423.229   107609571.440        -227.874          48.000  
C20  24701904.483   128629299.397       -2797.661          39.000  
G 3  24424021.126   128349114.685        3294.739          36.000  
C 9  35913084.912   187008866.792         461.414          42.000  
C 6  36406189.142   189576590.166         -96.351          42.000  
C 7  36244805.489   188736212.459         751.862          42.000  
C 3  37504781.552   195297239.465         452.824          37.000  
G26  23209361.551   121966090.431        3995.468          39.000  
C 1  37889755.534   197301897.779         469.715          37.000  
C10  37448528.733   195004324.200        1118.558          39.000  
C 2  38386292.275   199887496.652         393.554          36.000  
C 5  40026335.912   208427634.0973        389.323          32.000  
G 1  25550465.103   134268620.442       -1434.104          32.000  
G22  23332683.164   122614072.438        2293.542          40.000  
G 4  21770838.900   114406603.325        3697.042          43.000  
C 4  39064782.174   203420570.918         446.049          35.000  
C19  23632967.733   123063059.846        -492.498          45.000  
> 2017 12 19  9 18 56.0002584  0 23                     
G29  23882494.783   125503326.424        2896.301          39.000  
G10  23177013.716   121796038.920       -3193.991          39.000  
G12  23747912.526   124796128.435       -3003.658          39.000  
G14  20488249.981   107666471.929        1236.033          44.000  
G25  21176791.346   111284763.276       -1289.505          44.000  
G31  20615696.451   108336205.823        1323.704          47.000  
G32  20477466.637   107609799.700        -228.737          48.000  
C20  24702441.766   128632097.757       -2798.711          39.000  
G 3  24423394.209   128345820.337        3294.191          37.000  
C 9  35912996.308   187008405.625         460.779          42.000  
C 6  36406207.805   189576686.736         -96.898          42.000  
C 7  36244661.280   188735460.905         751.072          42.000  
C 3  37504694.589   195296786.496         452.907          38.000  
G26  23208601.280   121962095.216        3994.802          39.000  
C 1  37889665.386   197301428.257         469.619          37.000  
C10  37448313.834   195003205.914        1118.161          39.000  
C 2  38386216.611   199887103.380         392.692          36.000  
C 5  40026261.156   208427245.2062        388.035          32.000  
G 1  25550738.042   134270055.131       -1435.010          32.000  
G22  23332246.953   122611779.238        2292.881          40.000  
G 4  21770135.255   114402906.620        3696.174          43.000  
C 4  39064696.555   203420125.171         445.653          35.000  
C19  23633062.217   123063552.709        -493.411          45.000  
> 2017 12 19  9 18 57.0002584  0 23                     
G29  23881943.548   125500429.756        2896.252          39.000  
G10  23177621.612   121799232.756       -3194.216          39.000  
G12  23748483.890   124799132.025       -3004.229          39.000  
G14  20488014.622   107665235.840        1235.610          44.000  
G25  21177036.722   111286052.811       -1289.925          44.000  
G31  20615444.653   108334882.046        1323.348          47.000  
G32  20477510.262   107610028.414        -229.228          48.000  
C20  24702979.364   128634896.279       -2798.841          39.000  
G 3  24422767.816   128342526.394        3292.971          37.000  
C 9  35912907.478   187007944.539         460.699          42.000  
C 6  36406225.997   189576783.425         -96.871          42.000  
C 7  36244516.793   188734709.423         751.172          42.000  
C 3  37504607.573   195296333.552         452.936          37.000  
G26  23207841.227   121958100.243        3994.669          39.000  
C 1  37889575.230   197300958.746         469.322          37.000  
C10  37448099.222   195002087.704        1118.067          38.000  
C 2  38386141.051   199886710.079         392.663          36.000  
C 5  40026186.329   208426855.2743        388.016          32.000  
G 1  25551011.295   134271490.177       -1435.247          33.000  
G22  23331810.872   122609486.559        2292.392          40.000  
G 4  21769431.845   114399210.323        3695.839          43.000  
C 4  39064611.084   203419679.429         445.479          35.000  
C19  23633157.076   123064046.121        -493.881          45.000  
> 2017 12 19  9 18 58.0002584  0 23                     
G29  23881392.523   125497533.430        2895.953          39.000  
G10  23178229.298   121802426.807       -3193.820          39.000  
G12  23749055.490   124802135.922       -3003.832          39.000  
G14  20487779.384   107664000.151        1235.583          44.000  
G25  21177282.386   111287343.012       -1290.270          44.000  
G31  20615192.637   108333558.668        1323.291          47.000  
G32  20477553.783   107610257.636        -229.278          48.000  
C20  24703516.866   128637695.036       -2798.422          39.000  
G 3  24422141.406   128339232.803        3293.749          37.000  
C 9  35912819.005   187007483.613         460.870          42.000  
C 6  36406244.695   189576880.292         -96.663          42.000  
C 7  36244372.453   188733958.114         751.171          42.000  
C 3  37504520.723   195295880.665         452.968          37.000  
G26  23207081.322   121954105.552        3994.951          39.000  
C 1  37889484.986   197300489.278         469.569          37.000  
C10  37447884.375   195000969.663        1117.971          39.000  
C 2  38386065.597   199886316.819         393.436          36.000  
C 5  40026111.520   208426465.3853        389.297          32.000  
G 1  25551284.365   134272925.642       -1435.761          32.000  
G22  23331374.712   122607194.430        2291.972          40.000  
G 4  21768728.462   114395514.464        3695.922          43.000  
C 4  39064525.168   203419233.731         445.849          35.000  
C19  23633251.927   123064540.120        -494.147          45.000  
> 2017 12 19  9 18 59.0002584  0 23                     
G29  23880841.410   125494637.417        2895.880          39.000  
G10  23178836.967   121805621.111       -3194.097          39.000  
G12  23749627.202   124805140.173       -3004.217          39.000  
G14  20487544.216   107662764.890        1235.303          44.000  
G25  21177528.138   111288633.866       -1290.876          44.000  
G31  20614941.031   108332235.691        1323.097          47.000  
G32  20477597.575   107610487.386        -229.778          48.000  
C20  24704054.359   128640494.092       -2799.150          39.000  
G 3  24421515.109   128335939.701        3292.761          37.000  
C 9  35912730.446   187007022.849         460.822          42.000  
C 6  36406263.463   189576977.367         -96.825          42.000  
C 7  36244228.288   188733206.925         751.225          42.000  
C 3  37504433.629   195295427.836         452.936          37.000  
G26  23206321.051   121950111.170        3994.349          39.000  
C 1  37889394.734   197300019.850         470.005          37.000  
C10  37447669.737   194999851.751        1118.043          38.000  
C 2  38385989.994   199885923.636         393.321          36.000  
C 5  40026036.676   208426075.5672        389.378          32.000  
G 1  25551557.452   134274361.442       -1435.935          32.000  
G22  23330938.570   122604902.844        2291.692          40.000  
G 4  21768025.183   114391819.091        3695.252          43.000  
C 4  39064439.644   203418788.113         446.031          35.000  
C19  23633346.786   123065034.721        -494.615          45.000  
> 2017 12 19  9 19  0.0002584  0 23                     
G29  23880290.166   125491741.526        2896.179          39.000  
G10  23179444.915   121808815.411       -3194.212          39.000  
G12  23750198.723   124808144.524       -3004.173          39.000  
G14  20487309.345   107661529.843        1235.071          44.000  
G25  21177774.203   111289925.164       -1291.448          44.000  
G31  20614689.286   108330912.928        1322.716          47.000  
G32  20477641.444   107610717.442        -230.078          48.000  
C20  24704592.008   128643293.146       -2799.130          39.000  
G 3  24420888.506   128332646.780        3293.052          37.000  
C 9  35912641.659   187006562.041         461.011          42.000  
C 6  36406282.318   189577074.400         -96.998          42.000  
C 7  36244084.245   188732455.682         751.173          42.000  
C 3  37504346.675   195294974.843         453.043          37.000  
G26  23205560.763   121946116.842        3994.250          39.000  
C 1  37889304.717   197299550.322         469.136          37.000  
C10  37447454.934   194998733.788        1118.153          38.000  
C 2  38385914.583   199885530.309         393.365          36.000  
C 5  40025961.884   208425686.6383        388.770          32.000  
G 1  25551830.766   134275797.423       -1435.600          33.000  
G22  23330502.611   122602611.609        2291.423          40.000  
G 4  21767322.201   114388123.939        3695.287          43.000  
C 4  39064354.060   203418342.328         446.448          35.000  
C19  23633441.759   123065529.697        -495.051          45.000  
