     2.11           OBSERVATION DATA    M (MIXED)           RINEX VERSION / TYPE
RTKCONV 2.4.3 b29                       20171219 092708 UTC PGM / RUN BY / DATE 
log: G:\RTKDATA\1219test\20171219b.log                      COMMENT             
format: RTCM 3                                              COMMENT             
                                                            MARKER NAME         
                                                            MARKER NUMBER       
                                                            OBSERVER / AGENCY   
                                                            REC # / TYPE / VERS 
                                                            ANT # / TYPE        
        0.0000        0.0000        0.0000                  APPROX POSITION XYZ 
        0.0000        0.0000        0.0000                  ANTENNA: DELTA H/E/N
     1     1                                                WAVELENGTH FACT L1/2
    10    C1    L1    D1    S1    P1    P2    L2    D2    S2# / TYPES OF OBSERV 
          C2                                                # / TYPES OF OBSERV 
  2017    12    19     9    15   58.0000000     GPS         TIME OF FIRST OBS   
  2017    12    19     9    26   38.0000000     GPS         TIME OF LAST OBS    
                                                            END OF HEADER       
 17 12 19  9 15 58.0000000  0 15G10G12G14G22G25G26G31G32C 1C 2C 3C 6
                                C 7C 9C10
  23111560.809   121452063.413                          44.000                  
  23111572.745    94638015.174                          39.000                  
  23689207.282   124487632.460                          43.000                  
  23689215.967    97003387.094                          33.000                  
  20573410.675   108114012.194                          45.000                  
  20573418.930    84244724.624                          47.000                  
  23453606.502   123249538.563                          42.000                  
  23453612.666    96038639.371                          35.000                  
  21177132.055   111286589.995                          46.000                  
  21177143.331    86716876.865                          45.000                  
  23386809.110   122898514.229                          43.000                  
  23386821.493    95765136.642                          37.000                  
  20703799.631   108799227.597                          50.000                  
  20703807.547    84778664.947                          49.000                  
  20513314.006   107798195.369                          50.000                  
  20513325.192    83998641.925                          51.000                  
                 197604787.102                          44.000                  
                 197604787.102                          44.000    37947921.617  
                 200176901.990                          41.000                  
                 200176901.990                          41.000    38441869.676  
                 195597196.325                          44.000                  
                 195597196.325                          44.000    37562385.063  
                 189781254.321                          47.000                  
                 189781254.321                          47.000    36445494.649  
                 189090512.993                          46.000                  
                 189090512.993                          46.000    36312844.618  
                 187311941.440                          47.000                  
                 187311941.440                          47.000    35971288.876  
                 195423572.805                          45.000                  
                 195423572.805                          45.000    37529042.253  
 17 12 19  9 15 59.0000000  0 15G10G12G14G22G25G26G31G32C 1C 2C 3C 6
                                C 7C 9C10
  23112244.103   121455652.364                          43.000                  
  23112255.735    94640811.754                          39.000                  
  23689850.835   124491012.681                          43.000                  
  23689859.144    97006021.043                          34.000                  
  20573244.761   108113138.902                          46.000                  
  20573252.766    84244044.139                          47.000                  
  23453234.719   123247584.886                          42.000                  
  23453240.812    96037117.025                          35.000                  
  21177438.259   111288198.554                          46.000                  
  21177449.534    86718130.290                          45.000                  
  23386122.171   122894906.248                          43.000                  
  23386134.894    95762325.213                          37.000                  
  20703617.153   108798268.056                          50.000                  
  20703624.979    84777917.248                          49.000                  
  20513423.132   107798768.834                          50.000                  
  20513434.354    83999088.780                          51.000                  
                 197604740.348                          44.000                  
                 197604740.348                          44.000    37947913.040  
                 200176931.740                          41.000                  
                 200176931.740                          41.000    38441875.323  
                 195597166.378                          45.000                  
                 195597166.378                          45.000    37562379.274  
                 189781751.443                          47.000                  
                 189781751.443                          47.000    36445590.319  
                 189090167.565                          46.000                  
                 189090167.565                          46.000    36312777.984  
                 187311884.387                          47.000                  
                 187311884.387                          47.000    35971277.976  
                 195422860.374                          45.000                  
                 195422860.374                          45.000    37528905.215  
 17 12 19  9 16  0.0000000  0 15G10G12G14G22G25G26G31G32C 1C 2C 3C 6
                                C 7C 9C10
  23112927.753   121459245.801                          43.000                  
  23112939.565    94643611.826                          39.000                  
  23690494.620   124494397.494                          43.000                  
  23690503.251    97008658.562                          34.000                  
  20573079.401   108112270.285                          46.000                  
  20573087.478    84243367.290                          47.000                  
  23452863.615   123245636.022                          41.000                  
  23452869.869    96035598.419                          35.000                  
  21177745.249   111289812.022                          47.000                  
  21177756.560    86719387.538                          45.000                  
  23385436.519   122891302.807                          43.000                  
  23385449.295    95759517.339                          37.000                  
  20703435.496   108797313.178                          50.000                  
  20703443.305    84777173.192                          49.000                  
  20513533.062   107799347.055                          50.000                  
  20513544.391    83999539.344                          51.000                  
                 197604697.863                          44.000                  
                 197604697.863                          44.000    37947904.767  
                 200176965.749                          41.000                  
                 200176965.749                          41.000    38441881.827  
                 195597140.696                          44.000                  
                 195597140.696                          44.000    37562374.414  
                 189782252.949                          47.000                  
                 189782252.949                          47.000    36445686.794  
                 189089826.509                          46.000                  
                 189089826.509                          46.000    36312712.494  
                 187311831.674                          46.000                  
                 187311831.674                          46.000    35971267.791  
                 195422152.320                          45.000                  
                 195422152.320                          45.000    37528768.893  
 17 12 19  9 16  1.0000000  0 15G10G12G14G22G25G26G31G32C 1C 2C 3C 6
                                C 7C 9C10
  23113610.886   121462836.712                          43.000                  
  23113622.876    94646409.952                          39.000                  
  23691138.316   124497779.874                          43.000                  
  23691146.929    97011294.183                          34.000                  
  20572913.577   108111399.279                          46.000                  
  20572921.743    84242688.591                          47.000                  
  23452492.725   123243684.910                          41.000                  
  23452498.676    96034078.101                          35.000                  
  21178051.703   111291423.381                          47.000                  
  21178063.174    86720643.142                          45.000                  
  23384750.205   122887696.849                          43.000                  
  23384763.089    95756707.517                          37.000                  
  20703253.196   108796355.929                          50.000                  
  20703261.148    84776427.288                          49.000                  
  20513642.564   107799923.008                          50.000                  
  20513654.035    83999988.146                          51.000                  
                 197604652.667                          44.000                  
                 197604652.667                          44.000    37947895.904  
                 200176997.063                          41.000                  
                 200176997.063                          41.000    38441887.474  
                 195597112.316                          44.000                  
                 195597112.316                          44.000    37562369.071  
                 189782751.873                          47.000                  
                 189782751.873                          47.000    36445782.501  
                 189089482.846                          46.000                  
                 189089482.846                          46.000    36312646.736  
                 187311776.383                          47.000                  
                 187311776.383                          47.000    35971257.141  
                 195421441.638                          45.000                  
                 195421441.638                          45.000    37528632.409  
 17 12 19  9 16  2.0000000  0 15G10G12G14G22G25G26G31G32C 1C 2C 3C 6
                                C 7C 9C10
  23114294.769   121466430.390                          43.000                  
  23114306.688    94649210.212                          39.000                  
  23691782.459   124501165.133                          43.000                  
  23691791.286    97013932.054                          34.000                  
  20572748.252   108110531.228                          46.000                  
  20572756.544    84242012.176                          47.000                  
  23452122.211   123241736.877                          42.000                  
  23452127.911    96032560.112                          34.000                  
  21178358.960   111293037.958                          47.000                  
  21178370.343    86721901.254                          45.000                  
  23384064.785   122884093.677                          43.000                  
  23384077.365    95753899.837                          37.000                  
  20703071.540   108795401.614                          50.000                  
  20703079.527    84775683.655                          49.000                  
  20513752.976   107800502.016                          50.000                  
  20513764.162    84000439.309                          51.000                  
                 197604610.040                          44.000                  
                 197604610.040                          44.000    37947887.612  
                 200177030.935                          42.000                  
                 200177030.935                          42.000    38441893.978  
                 195597086.507                          44.000                  
                 195597086.507                          44.000    37562364.067  
                 189783253.493                          47.000                  
                 189783253.493                          47.000    36445878.583  
                 189089141.837                          46.000                  
                 189089141.837                          46.000    36312581.228  
                 187311723.747                          47.000                  
                 187311723.747                          47.000    35971246.991  
                 195420733.639                          45.000                  
                 195420733.639                          45.000    37528496.390  
 17 12 19  9 16  3.0000000  0 15G10G12G14G22G25G26G31G32C 1C 2C 3C 6
                                C 7C 9C10
  23114978.438   121470022.320                          43.000                  
  23114990.196    94652009.115                          38.000                  
  23692426.369   124504548.754                          43.000                  
  23692435.125    97016568.640                          34.000                  
  20572582.589   108109661.589                          46.000                  
  20572591.041    84241334.543                          46.000                  
  23451750.947   123239787.411                          41.000                  
  23451757.040    96031041.073                          34.000                  
  21178666.093   111294651.215                          46.000                  
  21178677.351    86723158.345                          44.000                  
  23383378.454   122880488.816                          43.000                  
  23383391.445    95751090.873                          36.000                  
  20702889.687   108794445.744                          50.000                  
  20702897.656    84774938.830                          48.000                  
  20513862.835   107801079.554                          50.000                  
  20513874.057    84000889.345                          51.000                  
                 197604565.498                          44.000                  
                 197604565.498                          44.000    37947878.946  
                 200177062.909                          41.000                  
                 200177062.909                          41.000    38441900.196  
                 195597058.793                          44.000                  
                 195597058.793                          44.000    37562358.671  
                 189783753.339                          47.000                  
                 189783753.339                          47.000    36445974.503  
                 189088799.013                          46.000                  
                 189088799.013                          46.000    36312515.417  
                 187311669.334                          47.000                  
                 187311669.334                          47.000    35971236.520  
                 195420023.823                          45.000                  
                 195420023.823                          45.000    37528360.335  
 17 12 19  9 16  4.0000000  0 15G10G12G14G22G25G26G31G32C 1C 2C 3C 6
                                C 7C 9C10
  23115661.964   121473614.897                          43.000                  
  23115673.865    94654808.538                          39.000                  
  23693070.922   124507933.124                          43.000                  
  23693079.178    97019205.793                          34.000                  
  20572417.425   108108792.770                          46.000                  
  20572425.717    84240657.545                          47.000                  
  23451379.861   123237838.882                          42.000                  
  23451386.240    96029522.734                          35.000                  
  21178973.333   111296265.523                          46.000                  
  21178984.501    86724416.247                          45.000                  
  23382692.784   122876884.633                          43.000                  
  23382705.524    95748282.411                          37.000                  
  20702707.941   108793490.660                          50.000                  
  20702715.911    84774194.606                          48.000                  
  20513972.908   107801657.998                          50.000                  
  20513984.148    84001340.077                          51.000                  
                 197604521.408                          44.000                  
                 197604521.408                          44.000    37947870.405  
                 200177095.354                          42.000                  
                 200177095.354                          42.000    38441906.647  
                 195597031.521                          44.000                  
                 195597031.521                          44.000    37562353.435  
                 189784253.758                          47.000                  
                 189784253.758                          47.000    36446070.567  
                 189088456.751                          46.000                  
                 189088456.751                          46.000    36312449.784  
                 187311615.476                          47.000                  
                 187311615.476                          47.000    35971226.281  
                 195419314.565                          45.000                  
                 195419314.565                          45.000    37528224.352  
 17 12 19  9 16  5.0000000  0 15G10G12G14G22G25G26G31G32C 1C 2C 3C 6
                                C 7C 9C10
  23116345.812   121477208.009                          43.000                  
  23116357.641    94657608.370                          39.000                  
  23693714.868   124511318.131                          43.000                  
  23693723.338    97021843.488                          34.000                  
  20572252.333   108107924.642                          46.000                  
  20572260.482    84239981.082                          47.000                  
  23451009.400   123235891.183                          42.000                  
  23451015.743    96028005.060                          35.000                  
  21179280.502   111297880.799                          46.000                  
  21179291.938    86725674.903                          45.000                  
  23382007.221   122873280.992                          43.000                  
  23382019.765    95745474.366                          37.000                  
  20702526.302   108792536.275                          50.000                  
  20702534.308    84773450.941                          49.000                  
  20514083.071   107802237.249                          50.000                  
  20514094.382    84001791.453                          51.000                  
                 197604477.660                          44.000                  
                 197604477.660                          44.000    37947862.042  
                 200177128.087                          42.000                  
                 200177128.087                          42.000    38441913.098  
                 195597004.575                          44.000                  
                 195597004.575                          44.000    37562348.057  
                 189784754.633                          47.000                  
                 189784754.633                          47.000    36446166.863  
                 189088114.893                          46.000                  
                 189088114.893                          46.000    36312384.097  
                 187311562.037                          47.000                  
                 187311562.037                          47.000    35971216.024  
                 195418605.726                          45.000                  
                 195418605.726                          45.000    37528088.244  
 17 12 19  9 16  6.0000000  0 15G10G12G14G22G25G26G31G32C 1C 2C 3C 6
                                C 7C 9C10
  23117029.516   121480800.288                          43.000                  
  23117041.220    94660407.518                          39.000                  
  23694358.528   124514702.389                          43.000                  
  23694367.391    97024480.561                          34.000                  
  20572087.063   108107055.849                          46.000                  
  20572095.158    84239304.091                          47.000                  
  23450638.761   123233942.949                          42.000                  
  23450645.051    96026486.940                          35.000                  
  21179587.831   111299495.658                          46.000                  
  21179599.196    86726933.233                          45.000                  
  23381321.336   122869676.536                          43.000                  
  23381333.827    95742665.708                          37.000                  
  20702344.664   108791581.223                          50.000                  
  20702352.544    84772706.736                          49.000                  
  20514193.305   107802815.922                          50.000                  
  20514204.491    84002242.358                          51.000                  
                 197604432.901                          44.000                  
                 197604432.901                          44.000    37947853.679  
                 200177159.834                          41.000                  
                 200177159.834                          41.000    38441919.298  
                 195596976.628                          44.000                  
                 195596976.628                          44.000    37562342.785  
                 189785254.633                          47.000                  
                 189785254.633                          47.000    36446262.749  
                 189087772.140                          46.000                  
                 189087772.140                          46.000    36312318.054  
                 187311507.696                          47.000                  
                 187311507.696                          47.000    35971205.856  
                 195417895.982                          45.000                  
                 195417895.982                          45.000    37527951.617  
 17 12 19  9 16  7.0000000  0 15G10G12G14G22G25G26G31G32C 1C 2C 3C 6
                                C 7C 9C10
  23117713.739   121484395.122                          43.000                  
  23117725.336    94663208.697                          39.000                  
  23695003.189   124518089.332                          43.000                  
  23695011.981    97027119.733                          33.000                  
  20571922.203   108106189.782                          46.000                  
  20571930.352    84238629.241                          46.000                  
  23450268.425   123231997.577                          42.000                  
  23450274.930    96024971.073                          35.000                  
  21179895.893   111301113.513                          46.000                  
  21179907.097    86728193.906                          45.000                  
  23380635.898   122866074.697                          43.000                  
  23380648.460    95739859.080                          37.000                  
  20702163.490   108790628.898                          50.000                  
  20702171.334    84771964.669                          48.000                  
  20514303.807   107803397.445                          50.000                  
  20514315.154    84002695.497                          51.000                  
                 197604390.497                          44.000                  
                 197604390.497                          44.000    37947845.352  
                 200177193.913                          41.000                  
                 200177193.913                          41.000    38441925.803  
                 195596951.037                          45.000                  
                 195596951.037                          45.000    37562337.943  
                 189785757.110                          47.000                  
                 189785757.110                          47.000    36446359.116  
                 189087431.829                          46.000                  
                 189087431.829                          46.000    36312252.921  
                 187311455.816                          47.000                  
                 187311455.816                          47.000    35971195.671  
                 195417188.658                          45.000                  
                 195417188.658                          45.000    37527816.081  
 17 12 19  9 16  8.0000000  0 15G10G12G14G22G25G26G31G32C 1C 2C 3C 6
                                C 7C 9C10
  23118397.068   121487986.086                          43.000                  
  23118408.701    94666006.860                          39.000                  
  23695646.849   124521472.508                          42.000                  
  23695655.855    97029755.985                          33.000                  
  20571756.736   108105320.032                          45.000                  
  20571764.831    84237951.513                          47.000                  
  23449897.446   123230048.631                          41.000                  
  23449904.040    96023452.407                          35.000                  
  21180203.133   111302727.909                          46.000                  
  21180214.319    86729451.872                          45.000                  
  23379949.478   122862469.005                          43.000                  
  23379962.290    95737049.459                          37.000                  
  20701981.512   108789672.875                          50.000                  
  20701989.410    84771219.709                          49.000                  
  20514413.826   107803975.367                          50.000                  
  20514425.120    84003145.823                          51.000                  
                 197604344.066                          44.000                  
                 197604344.066                          44.000    37947836.829  
                 200177223.988                          41.000                  
                 200177223.988                          41.000    38441931.342  
                 195596921.424                          44.000                  
                 195596921.424                          44.000    37562332.386  
                 189786255.689                          47.000                  
                 189786255.689                          47.000    36446454.948  
                 189087087.595                          46.000                  
                 189087087.595                          46.000    36312186.609  
                 187311400.024                          46.000                  
                 187311400.024                          46.000    35971184.735  
                 195416477.426                          44.000                  
                 195416477.426                          44.000    37527679.222  
 17 12 19  9 16  9.0000000  0 15G10G12G14G22G25G26G31G32C 1C 2C 3C 6
                                C 7C 9C10
  23119080.916   121491580.756                          43.000                  
  23119092.709    94668807.899                          39.000                  
  23696291.331   124524859.489                          42.000                  
  23696300.319    97032395.182                          34.000                  
  20571591.698   108104454.147                          45.000                  
  20571600.061    84237276.804                          47.000                  
  23449527.361   123228103.714                          41.000                  
  23449533.955    96021936.919                          35.000                  
  21180511.016   111304346.460                          46.000                  
  21180522.309    86730713.097                          45.000                  
  23379264.040   122858867.058                          43.000                  
  23379276.995    95734242.743                          37.000                  
  20701800.284   108788720.726                          50.000                  
  20701808.236    84770477.786                          49.000                  
  20514524.471   107804557.277                          50.000                  
  20514535.836    84003599.267                          51.000                  
                 197604301.127                          44.000                  
                 197604301.127                          44.000    37947828.377  
                 200177257.541                          41.000                  
                 200177257.541                          41.000    38441937.239  
                 195596895.280                          44.000                  
                 195596895.280                          44.000    37562327.257  
                 189786757.875                          47.000                  
                 189786757.875                          47.000    36446551.530  
                 189086746.955                          46.000                  
                 189086746.955                          46.000    36312121.333  
                 187311347.830                          46.000                  
                 187311347.830                          46.000    35971174.800  
                 195415769.776                          44.000                  
                 195415769.776                          44.000    37527543.560  
 17 12 19  9 16 10.0000000  0 15G10G12G14G22G25G26G31G32C 1C 2C 3C 6
                                C 7C 9C10
  23119764.513   121495173.603                          43.000                  
  23119776.468    94671607.516                          39.000                  
  23696935.831   124528244.739                          42.000                  
  23696944.337    97035033.035                          33.000                  
  20571426.856   108103586.597                          45.000                  
  20571434.951    84236600.781                          47.000                  
  23449156.793   123226157.247                          42.000                  
  23449163.458    96020420.171                          35.000                  
  21180818.810   111305963.581                          46.000                  
  21180830.014    86731973.171                          45.000                  
  23378578.495   122855263.288                          43.000                  
  23378591.200    95731434.619                          36.000                  
  20701618.788   108787766.907                          50.000                  
  20701626.722    84769734.546                          49.000                  
  20514634.991   107805137.611                          50.000                  
  20514646.267    84004051.466                          51.000                  
                 197604256.193                          44.000                  
                 197604256.193                          44.000    37947819.782  
                 200177289.128                          41.000                  
                 200177289.128                          41.000    38441943.582  
                 195596867.159                          44.000                  
                 195596867.159                          44.000    37562321.718  
                 189787258.195                          47.000                  
                 189787258.195                          47.000    36446647.594  
                 189086404.420                          46.000                  
                 189086404.420                          46.000    36312055.558  
                 187311293.734                          47.000                  
                 187311293.734                          47.000    35971164.347  
                 195415060.242                          44.000                  
                 195415060.242                          44.000    37527407.237  
 17 12 19  9 16 11.0000000  0 15G10G12G14G22G25G26G31G32C 1C 2C 3C 6
                                C 7C 9C10
  23120448.486   121498767.358                          43.000                  
  23120460.422    94674407.851                          39.000                  
  23697579.759   124531631.005                          42.000                  
  23697588.890    97037671.701                          34.000                  
  20571261.907   108102720.128                          45.000                  
  20571270.073    84235925.624                          47.000                  
  23448786.636   123224212.002                          42.000                  
  23448793.337    96018904.390                          35.000                  
  21181126.818   111307582.050                          46.000                  
  21181138.094    86733234.327                          45.000                  
  23377892.664   122851660.472                          43.000                  
  23377905.655    95728627.240                          37.000                  
  20701437.436   108786814.171                          50.000                  
  20701445.477    84768992.159                          49.000                  
  20514745.565   107805719.140                          50.000                  
  20514756.929    84004504.614                          51.000                  
                 197604211.986                          44.000                  
                 197604211.986                          44.000    37947811.026  
                 200177321.401                          41.000                  
                 200177321.401                          41.000    38441949.962  
                 195596839.748                          44.000                  
                 195596839.748                          44.000    37562316.250  
                 189787759.385                          47.000                  
                 189787759.385                          47.000    36446743.836  
                 189086062.666                          46.000                  
                 189086062.666                          46.000    36311989.925  
                 187311240.463                          46.000                  
                 187311240.463                          46.000    35971154.412  
                 195414351.519                          44.000                  
                 195414351.519                          44.000    37527271.200  
 17 12 19  9 16 12.0000000  0 15G10G12G14G22G25G26G31G32C 1C 2C 3C 6
                                C 7C 9C10
  23121131.958   121502362.195                          43.000                  
  23121144.448    94677209.020                          39.000                  
  23698224.206   124535018.470                          42.000                  
  23698233.551    97040311.267                          33.000                  
  20571097.101   108101854.938                          46.000                  
  20571105.410    84235251.436                          47.000                  
  23448417.498   123222268.161                          42.000                  
  23448423.359    96017389.712                          35.000                  
  21181434.952   111309202.033                          46.000                  
  21181446.299    86734496.637                          45.000                  
  23377207.297   122848058.806                          43.000                  
  23377220.306    95725820.724                          37.000                  
  20701256.422   108785862.705                          50.000                  
  20701264.374    84768250.750                          49.000                  
  20514856.674   107806302.047                          50.000                  
  20514867.842    84004958.819                          51.000                  
                 197604168.678                          44.000                  
                 197604168.678                          44.000    37947802.788  
                 200177354.605                          41.000                  
                 200177354.605                          41.000    38441956.269  
                 195596813.243                          44.000                  
                 195596813.243                          44.000    37562310.925  
                 189788261.592                          47.000                  
                 189788261.592                          47.000    36446840.168  
                 189085721.928                          46.000                  
                 189085721.928                          46.000    36311924.238  
                 187311188.222                          47.000                  
                 187311188.222                          47.000    35971144.298  
                 195413643.791                          45.000                  
                 195413643.791                          45.000    37527135.146  
 17 12 19  9 16 13.0000000  0 15G10G12G14G22G25G26G31G32C 1C 2C 3C 6
                                C 7C 9C10
  23121815.448   121505955.004                          43.000                  
  23121828.171    94680008.610                          38.000                  
  23698868.563   124538403.987                          42.000                  
  23698877.676    97042949.353                          33.000                  
  20570932.224   108100987.850                          46.000                  
  20570940.372    84234575.796                          46.000                  
  23448047.055   123220322.578                          42.000                  
  23448053.024    96015873.680                          34.000                  
  21181742.960   111310820.396                          47.000                  
  21181754.307    86735757.720                          45.000                  
  23376521.609   122844455.092                          43.000                  
  23376534.582    95723012.651                          37.000                  
  20701074.945   108784909.344                          50.000                  
  20701082.932    84767507.883                          48.000                  
  20514966.998   107806883.177                          50.000                  
  20514978.434    84005411.658                          51.000                  
                 197604123.151                          44.000                  
                 197604123.151                          44.000    37947793.943  
                 200177385.564                          41.000                  
                 200177385.564                          41.000    38441962.131  
                 195596784.523                          44.000                  
                 195596784.523                          44.000    37562305.671  
                 189788761.693                          47.000                  
                 189788761.693                          47.000    36446936.286  
                 189085379.073                          46.000                  
                 189085379.073                          46.000    36311858.266  
                 187311133.853                          46.000                  
                 187311133.853                          46.000    35971133.969  
                 195412933.943                          44.000                  
                 195412933.943                          44.000    37526999.109  
 17 12 19  9 16 14.0000000  0 15G10G12G14G22G25G26G31G32C 1C 2C 3C 6
                                C 7C 9C10
  23122500.189   121509551.288                          43.000                  
  23122512.554    94682810.893                          39.000                  
  23699513.545   124541793.090                          42.000                  
  23699522.337    97045590.182                          33.000                  
  20570767.954   108100124.424                          45.000                  
  20570776.013    84233902.988                          47.000                  
  23447677.059   123218380.760                          42.000                  
  23447683.439    96014360.572                          35.000                  
  21182051.773   111312442.679                          47.000                  
  21182062.923    86737021.821                          45.000                  
  23375836.350   122840854.900                          43.000                  
  23375849.466    95720207.295                          37.000                  
  20700894.307   108783959.642                          50.000                  
  20700902.241    84766767.844                          49.000                  
  20515078.340   107807468.053                          50.000                  
  20515089.722    84005867.399                          51.000                  
                 197604080.901                          44.000                  
                 197604080.901                          44.000    37947786.045  
                 200177419.794                          41.000                  
                 200177419.794                          41.000    38441968.545  
                 195596759.069                          44.000                  
                 195596759.069                          44.000    37562300.918  
                 189789265.180                          47.000                  
                 189789265.180                          47.000    36447032.904  
                 189085039.570                          46.000                  
                 189085039.570                          46.000    36311792.972  
                 187311082.845                          47.000                  
                 187311082.845                          47.000    35971124.320  
                 195412227.447                          45.000                  
                 195412227.447                          45.000    37526863.411  
 17 12 19  9 16 15.0000000  0 15G10G12G14G22G25G26G31G32C 1C 2C 3C 6
                                C 7C 9C10
  23123183.679   121513142.865                          43.000                  
  23123196.027    94685609.552                          39.000                  
  23700157.616   124545177.619                          42.000                  
  23700166.461    97048227.491                          33.000                  
  20570602.540   108099256.464                          46.000                  
  20570610.831    84233226.664                          47.000                  
  23447306.867   123216434.551                          42.000                  
  23447313.103    96012844.053                          35.000                  
  21182359.549   111314060.670                          46.000                  
  21182370.788    86738282.595                          45.000                  
  23375150.376   122837250.041                          43.000                  
  23375163.456    95717398.314                          37.000                  
  20700712.757   108783005.394                          50.000                  
  20700720.656    84766024.283                          49.000                  
  20515188.913   107808048.505                          50.000                  
  20515200.206    84006319.702                          51.000                  
                 197604033.792                          44.000                  
                 197604033.792                          44.000    37947777.057  
                 200177449.180                          41.000                  
                 200177449.180                          41.000    38441974.335  
                 195596728.755                          44.000                  
                 195596728.755                          44.000    37562295.182  
                 189789763.956                          47.000                  
                 189789763.956                          47.000    36447128.556  
                 189084695.330                          46.000                  
                 189084695.330                          46.000    36311727.250  
                 187311027.097                          47.000                  
                 187311027.097                          47.000    35971113.366  
                 195411516.221                          45.000                  
                 195411516.221                          45.000    37526726.517  
 17 12 19  9 16 16.0000000  0 15G10G12G14G22G25G26G31G32C 1C 2C 3C 6
                                C 7C 9C10
  23123868.545   121516740.056                          43.000                  
  23123880.535    94688412.539                          39.000                  
  23700802.813   124548567.825                          42.000                  
  23700811.569    97050869.197                          34.000                  
  20570438.485   108098394.267                          46.000                  
  20570446.758    84232554.816                          47.000                  
  23446937.085   123214494.241                          42.000                  
  23446943.804    96011332.121                          35.000                  
  21182668.433   111315684.693                          47.000                  
  21182679.797    86739548.068                          45.000                  
  23374465.993   122833650.808                          43.000                  
  23374478.519    95714593.731                          37.000                  
  20700532.227   108782056.919                          50.000                  
  20700540.125    84765285.205                          49.000                  
  20515300.434   107808634.831                          50.000                  
  20515311.763    84006776.581                          51.000                  
                 197603992.062                          44.000                  
                 197603992.062                          44.000    37947768.819  
                 200177483.934                          41.000                  
                 200177483.934                          41.000    38441980.625  
                 195596703.815                          45.000                  
                 195596703.815                          45.000    37562290.501  
                 189790268.230                          47.000                  
                 189790268.230                          47.000    36447225.424  
                 189084356.555                          46.000                  
                 189084356.555                          46.000    36311662.296  
                 187310976.822                          47.000                  
                 187310976.822                          47.000    35971103.628  
                 195410810.470                          45.000                  
                 195410810.470                          45.000    37526590.855  
 17 12 19  9 16 17.0000000  0 15G10G12G14G22G25G26G31G32C 1C 2C 3C 6
                                C 7C 9C10
  23124552.518   121520335.172                          43.000                  
  23124564.651    94691213.935                          39.000                  
  23701447.241   124551956.083                          42.000                  
  23701456.247    97053509.409                          33.000                  
  20570274.143   108097530.192                          45.000                  
  20570282.327    84231881.515                          47.000                  
  23446568.054   123212552.217                          42.000                  
  23446574.219    96009818.849                          35.000                  
  21182977.245   111317307.076                          46.000                  
  21182988.520    86740812.262                          45.000                  
  23373780.644   122830049.548                          43.000                  
  23373793.260    95711787.544                          37.000                  
  20700351.285   108781106.548                          50.000                  
  20700359.308    84764544.663                          49.000                  
  20515411.650   107809219.370                          50.000                  
  20515422.979    84007232.064                          51.000                  
                 197603948.129                          44.000                  
                 197603948.129                          44.000    37947760.403  
                 200177516.472                          41.000                  
                 200177516.472                          41.000    38441987.147  
                 195596676.648                          44.000                  
                 195596676.648                          44.000    37562285.336  
                 189790770.408                          47.000                  
                 189790770.408                          47.000    36447321.881  
                 189084015.645                          46.000                  
                 189084015.645                          46.000    36311596.681  
                 187310924.444                          47.000                  
                 187310924.444                          47.000    35971093.371  
                 195410102.579                          45.000                  
                 195410102.579                          45.000    37526454.926  
 17 12 19  9 16 18.0000000  0 15G10G12G14G22G25G26G31G32C 1C 2C 3C 6
                                C 7C 9C10
  23125236.687   121523928.985                          43.000                  
  23125248.534    94694014.298                          39.000                  
  23702092.188   124555343.153                          42.000                  
  23702100.997    97056148.693                          33.000                  
  20570109.534   108096664.967                          45.000                  
  20570117.682    84231207.312                          47.000                  
  23446198.326   123210609.128                          42.000                  
  23446204.616    96008304.740                          35.000                  
  21183285.950   111318928.576                          46.000                  
  21183297.083    86742075.766                          45.000                  
  23373094.938   122826447.028                          43.000                  
  23373107.661    95708980.377                          37.000                  
  20700170.290   108780155.038                          50.000                  
  20700178.241    84763803.225                          49.000                  
  20515522.689   107809802.885                          50.000                  
  20515534.017    84007686.747                          51.000                  
                 197603902.701                          44.000                  
                 197603902.701                          44.000    37947751.808  
                 200177547.513                          42.000                  
                 200177547.513                          42.000    38441993.169  
                 195596648.006                          44.000                  
                 195596648.006                          44.000    37562279.690  
                 189791271.228                          47.000                  
                 189791271.228                          47.000    36447418.249  
                 189083673.353                          46.000                  
                 189083673.353                          46.000    36311531.012  
                 187310870.685                          47.000                  
                 187310870.685                          47.000    35971083.364  
                 195409393.292                          45.000                  
                 195409393.292                          45.000    37526318.746  
 17 12 19  9 16 19.0000000  0 15G10G12G14G22G25G26G31G32C 1C 2C 3C 6
                                C 7C 9C10
  23125920.785   121527525.046                          43.000                  
  23125932.828    94696816.439                          39.000                  
  23702737.313   124558732.540                          42.000                  
  23702745.998    97058789.779                          34.000                  
  20569945.317   108095802.172                          45.000                  
  20569953.519    84230535.013                          47.000                  
  23445828.866   123208668.622                          42.000                  
  23445835.371    96006792.686                          35.000                  
  21183594.906   111320552.770                          46.000                  
  21183606.199    86743341.386                          45.000                  
  23372410.001   122822846.774                          43.000                  
  23372422.634    95706175.012                          37.000                  
  20699989.741   108779205.941                          50.000                  
  20699997.657    84763063.673                          49.000                  
  20515634.281   107810388.912                          50.000                  
  20515645.484    84008143.396                          51.000                  
                 197603859.291                          44.000                  
                 197603859.291                          44.000    37947743.302  
                 200177580.588                          41.000                  
                 200177580.588                          41.000    38441999.530  
                 195596621.412                          44.000                  
                 195596621.412                          44.000    37562274.669  
                 189791774.220                          47.000                  
                 189791774.220                          47.000    36447514.903  
                 189083333.191                          46.000                  
                 189083333.191                          46.000    36311465.522  
                 187310819.081                          47.000                  
                 187310819.081                          47.000    35971073.447  
                 195408686.148                          45.000                  
                 195408686.148                          45.000    37526183.013  
 17 12 19  9 16 20.0000000  0 15G10G12G14G22G25G26G31G32C 1C 2C 3C 6
                                C 7C 9C10
  23126604.561   121531118.836                          43.000                  
  23126616.783    94699616.779                          39.000                  
  23703381.938   124562119.789                          42.000                  
  23703390.390    97061429.159                          33.000                  
  20569780.922   108094937.255                          45.000                  
  20569788.910    84229861.040                          47.000                  
  23445459.460   123206726.122                          42.000                  
  23445465.911    96005279.032                          35.000                  
  21183903.593   111322175.100                          46.000                  
  21183914.958    86744605.528                          45.000                  
  23371724.259   122819244.272                          43.000                  
  23371737.053    95703367.851                          37.000                  
  20699808.728   108778254.734                          50.000                  
  20699816.626    84762322.470                          49.000                  
  20515745.283   107810972.926                          50.000                  
  20515756.630    84008598.469                          51.000                  
                 197603813.453                          44.000                  
                 197603813.453                          44.000    37947734.618  
                 200177611.251                          41.000                  
                 200177611.251                          41.000    38442005.838  
                 195596592.372                          44.000                  
                 195596592.372                          44.000    37562269.004  
                 189792274.889                          47.000                  
                 189792274.889                          47.000    36447611.074  
                 189082990.678                          46.000                  
                 189082990.678                          46.000    36311399.604  
                 187310765.136                          47.000                  
                 187310765.136                          47.000    35971063.012  
                 195407976.675                          45.000                  
                 195407976.675                          45.000    37526046.743  
 17 12 19  9 16 21.0000000  0 15G10G12G14G22G25G26G31G32C 1C 2C 3C 6
                                C 7C 9C10
  23127289.355   121534716.977                          43.000                  
  23127301.470    94702420.532                          39.000                  
  23704027.385   124565511.451                          42.000                  
  23704035.891    97064072.060                          32.000                  
  20569617.010   108094076.863                          46.000                  
  20569625.176    84229190.614                          47.000                  
  23445090.590   123204788.289                          42.000                  
  23445097.112    96003769.039                          35.000                  
  21184213.228   111323802.202                          47.000                  
  21184224.646    86745873.404                          45.000                  
  23371039.536   122815646.160                          43.000                  
  23371052.348    95700564.134                          37.000                  
  20699628.483   108777308.045                          50.000                  
  20699636.453    84761584.791                          49.000                  
  20515857.447   107811561.579                          50.000                  
  20515868.651    84009057.160                          51.000                  
                 197603771.755                          44.000                  
                 197603771.755                          44.000    37947726.702  
                 200177646.037                          41.000                  
                 200177646.037                          41.000    38442012.718  
                 195596567.458                          44.000                  
                 195596567.458                          44.000    37562264.126  
                 189792779.806                          47.000                  
                 189792779.806                          47.000    36447707.942  
                 189082652.400                          46.000                  
                 189082652.400                          46.000    36311334.739  
                 187310715.413                          47.000                  
                 187310715.413                          47.000    35971053.434  
                 195407271.418                          44.000                  
                 195407271.418                          44.000    37525911.207  
 17 12 19  9 16 22.0000000  0 15G10G12G14G22G25G26G31G32C 1C 2C 3C 6
                                C 7C 9C10
  23127973.274   121538310.060                          43.000                  
  23127985.086    94705220.323                          39.000                  
  23704671.903   124568898.206                          42.000                  
  23704680.516    97066711.075                          33.000                  
  20569452.579   108093211.609                          45.000                  
  20569460.513    84228516.378                          47.000                  
  23444721.219   123202845.740                          42.000                  
  23444727.438    96002255.351                          35.000                  
  21184522.058   111325424.682                          46.000                  
  21184533.387    86747137.669                          45.000                  
  23370353.884   122812043.039                          42.000                  
  23370366.553    95697756.510                          37.000                  
  20699447.398   108776356.477                          50.000                  
  20699455.368    84760843.300                          48.000                  
  20515968.539   107812145.464                          50.000                  
  20515979.742    84009512.133                          51.000                  
                 197603724.864                          44.000                  
                 197603724.864                          44.000    37947717.553  
                 200177675.641                          41.000                  
                 200177675.641                          41.000    38442018.168  
                 195596537.354                          44.000                  
                 195596537.354                          44.000    37562258.444  
                 189793279.673                          47.000                  
                 189793279.673                          47.000    36447803.898  
                 189082309.030                          46.000                  
                 189082309.030                          46.000    36311268.713  
                 187310660.628                          47.000                  
                 187310660.628                          47.000    35971043.034  
                 195406561.070                          44.000                  
                 195406561.070                          44.000    37525774.777  
 17 12 19  9 16 23.0000000  0 15G10G12G14G22G25G26G31G32C 1C 2C 3C 6
                                C 7C 9C10
  23128657.211   121541905.184                          43.000                  
  23128669.273    94708021.733                          38.000                  
  23705316.742   124572287.069                          43.000                  
  23705325.409    97069351.719                          33.000                  
  20569288.095   108092348.543                          45.000                  
  20569296.243    84227843.878                          46.000                  
  23444351.938   123200905.485                          41.000                  
  23444358.121    96000743.489                          35.000                  
  21184831.174   111327049.627                          46.000                  
  21184842.610    86748403.874                          44.000                  
  23369668.517   122808441.963                          42.000                  
  23369681.347    95694950.493                          36.000                  
  20699266.850   108775407.110                          50.000                  
  20699274.712    84760103.554                          48.000                  
  20516080.023   107812731.647                          50.000                  
  20516091.281    84009968.915                          51.000                  
                 197603679.811                          44.000                  
                 197603679.811                          44.000    37947708.940  
                 200177707.068                          41.000                  
                 200177707.068                          41.000    38442024.136  
                 195596509.073                          44.000                  
                 195596509.073                          44.000    37562252.761  
                 189793781.490                          47.000                  
                 189793781.490                          47.000    36447900.159  
                 189081967.591                          46.000                  
                 189081967.591                          46.000    36311203.152  
                 187310607.779                          47.000                  
                 187310607.779                          47.000    35971032.866  
                 195405852.649                          45.000                  
                 195405852.649                          45.000    37525638.883  
 17 12 19  9 16 24.0000000  0 15G10G12G14G22G25G26G31G32C 1C 2C 3C 6
                                C 7C 9C10
  23129342.542   121545504.118                          43.000                  
  23129354.139    94710826.092                          39.000                  
  23705962.690   124575679.875                          43.000                  
  23705971.070    97071995.460                          33.000                  
  20569124.826   108091489.489                          46.000                  
  20569132.777    84227174.470                          47.000                  
  23443983.675   123198969.380                          42.000                  
  23443989.554    95999234.827                          35.000                  
  21185141.505   111328678.824                          47.000                  
  21185152.620    86749673.369                          45.000                  
  23368984.187   122804844.769                          43.000                  
  23368996.749    95692147.455                          37.000                  
  20699086.998   108774461.745                          50.000                  
  20699094.753    84759366.892                          49.000                  
  20516192.437   107813321.932                          50.000                  
  20516203.552    84010428.863                          51.000                  
                 197603638.367                          44.000                  
                 197603638.367                          44.000    37947701.078  
                 200177742.098                          42.000                  
                 200177742.098                          42.000    38442030.819  
                 195596484.424                          44.000                  
                 195596484.424                          44.000    37562247.883  
                 189794287.044                          47.000                  
                 189794287.044                          47.000    36447997.402  
                 189081629.850                          46.000                  
                 189081629.850                          46.000    36311138.358  
                 187310558.635                          47.000                  
                 187310558.635                          47.000    35971023.378  
                 195405147.913                          45.000                  
                 195405147.913                          45.000    37525503.561  
 17 12 19  9 16 25.0000000  0 15G10G12G14G22G25G26G31G32C 1C 2C 3C 6
                                C 7C 9C10
  23130025.603   121549096.235                          43.000                  
  23130037.647    94713625.156                          39.000                  
  23706606.904   124579065.929                          43.000                  
  23706615.302    97074633.971                          34.000                  
  20568960.020   108090623.751                          45.000                  
  20568968.079    84226499.877                          47.000                  
  23443614.001   123197026.723                          42.000                  
  23443619.844    95997721.058                          35.000                  
  21185450.175   111330301.583                          46.000                  
  21185461.450    86750937.863                          45.000                  
  23368298.124   122801240.738                          43.000                  
  23368310.883    95689339.147                          37.000                  
  20698905.735   108773509.681                          50.000                  
  20698913.597    84758625.024                          49.000                  
  20516303.475   107813905.626                          50.000                  
  20516314.697    84010883.699                          51.000                  
                 197603589.935                          44.000                  
                 197603589.935                          44.000    37947692.054  
                 200177770.190                          41.000                  
                 200177770.190                          41.000    38442035.876  
                 195596452.793                          44.000                  
                 195596452.793                          44.000    37562241.950  
                 189794785.747                          47.000                  
                 189794785.747                          47.000    36448093.251  
                 189081285.227                          46.000                  
                 189081285.227                          46.000    36311072.386  
                 187310502.608                          47.000                  
                 187310502.608                          47.000    35971012.674  
                 195404436.338                          45.000                  
                 195404436.338                          45.000    37525366.916  
 17 12 19  9 16 26.0000000  0 15G10G12G14G22G25G26G31G32C 1C 2C 3C 6
                                C 7C 9C10
  23130710.469   121552695.694                          43.000                  
  23130722.602    94716429.922                          39.000                  
  23707252.440   124582459.478                          43.000                  
  23707261.124    97077278.297                          34.000                  
  20568796.589   108089765.554                          46.000                  
  20568804.756    84225831.157                          47.000                  
  23443245.006   123195091.759                          42.000                  
  23443251.635    95996213.299                          35.000                  
  21185760.560   111331932.156                          47.000                  
  21185771.710    86752208.442                          45.000                  
  23367613.830   122797644.129                          43.000                  
  23367626.553    95686536.594                          37.000                  
  20698725.901   108772565.182                          50.000                  
  20698733.835    84757889.060                          49.000                  
  20516415.925   107814496.993                          50.000                  
  20516427.218    84011344.502                          51.000                  
                 197603548.645                          44.000                  
                 197603548.645                          44.000    37947683.727  
                 200177805.359                          41.000                  
                 200177805.359                          41.000    38442043.167  
                 195596428.286                          44.000                  
                 195596428.286                          44.000    37562237.376  
                 189795291.705                          47.000                  
                 189795291.705                          47.000    36448190.280  
                 189080947.844                          46.000                  
                 189080947.844                          46.000    36311007.593  
                 187310453.836                          47.000                  
                 187310453.836                          47.000    35971003.311  
                 195403731.971                          45.000                  
                 195403731.971                          45.000    37525231.702  
 17 12 19  9 16 27.0000000  0 15G10G12G14G22G25G26G31G32C 1C 2C 3C 6
                                C 7C 9C10
  23131395.013   121556291.999                          43.000                  
  23131406.968    94719232.228                          39.000                  
  23707897.655   124585849.928                          43.000                  
  23707906.500    97079920.199                          33.000                  
  20568632.909   108088904.349                          45.000                  
  20568640.861    84225160.077                          47.000                  
  23442876.904   123193153.920                          42.000                  
  23442882.836    95994703.283                          35.000                  
  21186070.355   111333559.965                          46.000                  
  21186081.505    86753476.853                          45.000                  
  23366928.946   122794044.356                          42.000                  
  23366941.508    95683731.560                          37.000                  
  20698545.674   108771617.660                          50.000                  
  20698553.483    84757150.722                          49.000                  
  20516528.071   107815085.435                          50.000                  
  20516539.168    84011803.022                          51.000                  
                 197603504.022                          44.000                  
                 197603504.022                          44.000    37947675.132  
                 200177837.182                          42.000                  
                 200177837.182                          42.000    38442049.564  
                 195596400.444                          44.000                  
                 195596400.444                          44.000    37562232.015  
                 189795794.456                          47.000                  
                 189795794.456                          47.000    36448286.791  
                 189080607.213                          46.000                  
                 189080607.213                          46.000    36310942.264  
                 187310401.816                          47.000                  
                 187310401.816                          47.000    35970993.394  
                 195403024.350                          45.000                  
                 195403024.350                          45.000    37525095.826  
 17 12 19  9 16 28.0000000  0 15G10G12G14G22G25G26G31G32C 1C 2C 3C 6
                                C 7C 9C10
  23132079.611   121559888.999                          43.000                  
  23132091.459    94722035.085                          39.000                  
  23708542.869   124589241.220                          43.000                  
  23708551.804    97082562.776                          34.000                  
  20568469.015   108088044.051                          45.000                  
  20568477.181    84224489.721                          47.000                  
  23442508.445   123191217.090                          42.000                  
  23442514.145    95993194.076                          35.000                  
  21186380.204   111335188.909                          46.000                  
  21186391.515    86754746.172                          45.000                  
  23366243.991   122790445.343                          43.000                  
  23366256.570    95680927.139                          37.000                  
  20698365.429   108770671.027                          50.000                  
  20698373.416    84756413.093                          49.000                  
  20516640.181   107815674.884                          50.000                  
  20516651.367    84012262.339                          51.000                  
                 197603459.914                          44.000                  
                 197603459.914                          44.000    37947666.555  
                 200177869.540                          42.000                  
                 200177869.540                          42.000    38442055.300  
                 195596373.111                          44.000                  
                 195596373.111                          44.000    37562226.655  
                 189796297.881                          47.000                  
                 189796297.881                          47.000    36448383.444  
                 189080267.181                          46.000                  
                 189080267.181                          46.000    36310876.899  
                 187310350.427                          47.000                  
                 187310350.427                          47.000    35970983.477  
                 195402317.381                          45.000                  
                 195402317.381                          45.000    37524959.896  
 17 12 19  9 16 29.0000000  0 15G10G12G14G22G25G26G31G32C 1C 2C 3C 6
                                C 7C 9C10
  23132764.102   121563486.802                          42.000                  
  23132776.110    94724838.569                          39.000                  
  23709188.299   124592633.425                          42.000                  
  23709197.287    97085206.041                          34.000                  
  20568305.549   108087184.709                          45.000                  
  20568313.643    84223820.093                          47.000                  
  23442139.717   123189281.387                          42.000                  
  23442145.882    95991685.732                          35.000                  
  21186690.446   111336819.098                          46.000                  
  21186701.739    86756016.447                          45.000                  
  23365559.142   122786847.175                          42.000                  
  23365571.883    95678123.372                          37.000                  
  20698185.577   108769725.369                          50.000                  
  20698193.440    84755676.212                          49.000                  
  20516752.560   107816265.412                          50.000                  
  20516763.746    84012722.487                          51.000                  
                 197603416.434                          44.000                  
                 197603416.434                          44.000    37947658.246  
                 200177902.554                          41.000                  
                 200177902.554                          41.000    38442061.339  
                 195596346.409                          44.000                  
                 195596346.409                          44.000    37562221.633  
                 189796802.037                          47.000                  
                 189796802.037                          47.000    36448480.437  
                 189079927.873                          46.000                  
                 189079927.873                          46.000    36310811.945  
                 187310299.759                          47.000                  
                 187310299.759                          47.000    35970973.649  
                 195401611.103                          44.000                  
                 195401611.103                          44.000    37524824.413  
 17 12 19  9 16 30.0000000  0 15G10G12G14G22G25G26G31G32C 1C 2C 3C 6
                                C 7C 9C10
  23133448.736   121567084.674                          43.000                  
  23133460.815    94727642.123                          39.000                  
  23709834.014   124596025.791                          42.000                  
  23709842.859    97087849.464                          34.000                  
  20568142.029   108086325.617                          45.000                  
  20568150.195    84223150.687                          47.000                  
  23441771.437   123187346.036                          41.000                  
  23441777.655    95990177.673                          35.000                  
  21187000.813   111338449.765                          46.000                  
  21187012.088    86757287.101                          45.000                  
  23364874.384   122783249.104                          42.000                  
  23364887.196    95675319.689                          37.000                  
  20698005.636   108768779.931                          50.000                  
  20698013.552    84754939.516                          49.000                  
  20516864.902   107816856.278                          50.000                  
  20516876.178    84013182.908                          51.000                  
                 197603372.835                          44.000                  
                 197603372.835                          44.000    37947650.062  
                 200177935.389                          42.000                  
                 200177935.389                          42.000    38442067.719  
                 195596319.579                          44.000                  
                 195596319.579                          44.000    37562217.005  
                 189797306.180                          47.000                  
                 189797306.180                          47.000    36448577.127  
                 189079588.562                          46.000                  
                 189079588.562                          46.000    36310746.598  
                 187310249.091                          47.000                  
                 187310249.091                          47.000    35970964.071  
                 195400904.779                          45.000                  
                 195400904.779                          45.000    37524688.966  
 17 12 19  9 16 31.0000000  0 15G10G12G14G22G25G26G31G32C 1C 2C 3C 6
                                C 7C 9C10
  23134133.513   121570681.982                          43.000                  
  23134145.378    94730445.202                          39.000                  
  23710479.586   124599417.702                          42.000                  
  23710488.395    97090492.502                          33.000                  
  20567978.671   108085466.111                          45.000                  
  20567986.622    84222480.935                          47.000                  
  23441402.835   123185410.427                          42.000                  
  23441409.392    95988669.392                          35.000                  
  21187311.019   111340080.300                          46.000                  
  21187322.348    86758557.645                          45.000                  
  23364189.535   122779650.505                          42.000                  
  23364202.365    95672515.577                          37.000                  
  20697825.713   108767834.099                          50.000                  
  20697833.557    84754202.497                          49.000                  
  20516977.298   107817446.836                          50.000                  
  20516988.610    84013643.081                          51.000                  
                 197603328.486                          44.000                  
                 197603328.486                          44.000    37947641.288  
                 200177967.529                          41.000                  
                 200177967.529                          41.000    38442073.830  
                 195596292.014                          44.000                  
                 195596292.014                          44.000    37562211.609  
                 189797809.716                          47.000                  
                 189797809.716                          47.000    36448673.744  
                 189079248.580                          46.000                  
                 189079248.580                          46.000    36310681.054  
                 187310197.786                          47.000                  
                 187310197.786                          47.000    35970954.207  
                 195400197.859                          45.000                  
                 195400197.859                          45.000    37524553.233  
 17 12 19  9 16 32.0000000  0 15G10G12G14G22G25G26G31G32C 1C 2C 3C 6
                                C 7C 9C10
  23134817.878   121574278.715                          43.000                  
  23134829.797    94733247.847                          39.000                  
  23711124.925   124602809.150                          42.000                  
  23711133.610    97093135.159                          33.000                  
  20567814.901   108084606.227                          45.000                  
  20567822.960    84221810.895                          47.000                  
  23441034.929   123183474.554                          41.000                  
  23441040.915    95987160.920                          34.000                  
  21187621.351   111341710.695                          46.000                  
  21187632.608    86759828.082                          45.000                  
  23363504.812   122776051.351                          43.000                  
  23363517.517    95669711.046                          37.000                  
  20697645.593   108766887.860                          50.000                  
  20697653.473    84753465.173                          48.000                  
  20517089.570   107818037.124                          50.000                  
  20517100.899    84014103.041                          51.000                  
                 197603283.383                          44.000                  
                 197603283.383                          44.000    37947632.639  
                 200177998.912                          42.000                  
                 200177998.912                          42.000    38442080.298  
                 195596263.692                          44.000                  
                 195596263.692                          44.000    37562205.944  
                 189798312.630                          47.000                  
                 189798312.630                          47.000    36448770.344  
                 189078907.969                          46.000                  
                 189078907.969                          46.000    36310615.672  
                 187310145.839                          47.000                  
                 187310145.839                          47.000    35970944.308  
                 195399490.279                          45.000                  
                 195399490.279                          45.000    37524417.303  
 17 12 19  9 16 33.0000000  0 15G10G12G14G22G25G26G31G32C 1C 2C 3C 6
                                C 7C 9C10
  23135502.637   121577877.737                          43.000                  
  23135514.574    94736052.288                          38.000                  
  23711770.783   124606202.963                          42.000                  
  23711779.396    97095779.714                          32.000                  
  20567651.793   108083748.790                          45.000                  
  20567659.798    84221142.763                          46.000                  
  23440667.185   123181541.263                          42.000                  
  23440672.849    95985654.468                          34.000                  
  21187932.164   111343343.789                          46.000                  
  21187943.332    86761100.625                          45.000                  
  23362820.500   122772454.530                          42.000                  
  23362833.062    95666908.337                          36.000                  
  20697466.010   108765944.074                          50.000                  
  20697473.836    84752729.755                          48.000                  
  20517202.484   107818629.964                          50.000                  
  20517213.724    84014565.004                          51.000                  
                 197603240.392                          44.000                  
                 197603240.392                          44.000    37947624.616  
                 200178032.349                          42.000                  
                 200178032.349                          42.000    38442086.481  
                 195596237.458                          44.000                  
                 195596237.458                          44.000    37562201.030  
                 189798817.748                          47.000                  
                 189798817.748                          47.000    36448867.427  
                 189078569.490                          46.000                  
                 189078569.490                          46.000    36310550.521  
                 187310096.060                          47.000                  
                 187310096.060                          47.000    35970934.533  
                 195398784.871                          45.000                  
                 195398784.871                          45.000    37524281.534  
 17 12 19  9 16 34.0000000  0 15G10G12G14G22G25G26G31G32C 1C 2C 3C 6
                                C 7C 9C10
  23136186.914   121581474.358                          43.000                  
  23136198.939    94738854.839                          39.000                  
  23712415.962   124609594.496                          42.000                  
  23712424.933    97098422.455                          33.000                  
  20567488.202   108082889.123                          45.000                  
  20567496.189    84220472.890                          47.000                  
  23440298.833   123179605.871                          42.000                  
  23440304.551    95984146.378                          35.000                  
  21188242.424   111344974.913                          46.000                  
  21188253.717    86762371.623                          45.000                  
  23362135.724   122768855.350                          42.000                  
  23362148.107    95664103.774                          37.000                  
  20697286.122   108764998.067                          50.000                  
  20697293.877    84751992.606                          49.000                  
  20517314.755   107819220.672                          50.000                  
  20517326.138    84015025.293                          51.000                  
                 197603194.830                          44.000                  
                 197603194.830                          44.000    37947615.860  
                 200178063.247                          41.000                  
                 200178063.247                          41.000    38442092.414  
                 195596208.654                          44.000                  
                 195596208.654                          44.000    37562195.705  
                 189799320.423                          47.000                  
                 189799320.423                          47.000    36448963.830  
                 189078228.566                          46.000                  
                 189078228.566                          46.000    36310485.353  
                 187310043.840                          46.000                  
                 187310043.840                          46.000    35970924.562  
                 195398077.001                          44.000                  
                 195398077.001                          44.000    37524145.908  
 17 12 19  9 16 35.0000000  0 15G10G12G14G22G25G26G31G32C 1C 2C 3C 6
                                C 7C 9C10
  23136872.155   121585074.806                          43.000                  
  23136884.074    94741660.392                          39.000                  
  23713062.088   124612989.952                          42.000                  
  23713071.130    97101068.274                          33.000                  
  20567325.469   108082033.449                          45.000                  
  20567333.367    84219806.134                          47.000                  
  23439931.106   123177674.625                          41.000                  
  23439937.021    95982641.506                          36.000                  
  21188553.649   111346610.358                          46.000                  
  21188564.906    86763645.995                          45.000                  
  23361451.429   122765260.019                          42.000                  
  23361463.866    95661302.230                          37.000                  
  20697106.771   108764056.035                          50.000                  
  20697114.597    84751258.551                          49.000                  
  20517428.062   107819815.484                          50.000                  
  20517439.338    84015488.784                          51.000                  
                 197603152.856                          44.000                  
                 197603152.856                          44.000    37947607.766  
                 200178097.733                          41.000                  
                 200178097.733                          41.000    38442099.257  
                 195596183.461                          44.000                  
                 195596183.461                          44.000    37562190.827  
                 189799826.832                          47.000                  
                 189799826.832                          47.000    36449061.109  
                 189077891.331                          46.000                  
                 189077891.331                          46.000    36310420.578  
                 187309995.312                          47.000                  
                 187309995.312                          47.000    35970915.163  
                 195397372.791                          45.000                  
                 195397372.791                          45.000    37524010.479  
 17 12 19  9 16 36.0000000  0 15G10G12G14G22G25G26G31G32C 1C 2C 3C 6
                                C 7C 9C10
  23137556.288   121588669.869                          43.000                  
  23137568.171    94744461.733                          39.000                  
  23713707.178   124616380.149                          42.000                  
  23713716.255    97103709.971                          33.000                  
  20567161.842   108081172.579                          45.000                  
  20567169.579    84219135.326                          47.000                  
  23439562.289   123175738.306                          42.000                  
  23439568.615    95981132.688                          35.000                  
  21188863.802   111348240.793                          46.000                  
  21188875.202    86764916.469                          45.000                  
  23360766.277   122761659.340                          42.000                  
  23360778.589    95658496.487                          37.000                  
  20696926.526   108763108.807                          50.000                  
  20696934.388    84750520.456                          49.000                  
  20517540.191   107820405.191                          50.000                  
  20517551.555    84015948.295                          51.000                  
                 197603105.381                          44.000                  
                 197603105.381                          44.000    37947598.688  
                 200178126.700                          41.000                  
                 200178126.700                          41.000    38442104.743  
                 195596152.755                          44.000                  
                 195596152.755                          44.000    37562184.680  
                 189800327.864                          47.000                  
                 189800327.864                          47.000    36449157.405  
                 189077548.688                          46.000                  
                 189077548.688                          46.000    36310354.570  
                 187309941.411                          47.000                  
                 187309941.411                          47.000    35970904.763  
                 195396663.204                          45.000                  
                 195396663.204                          45.000    37523873.995  
 17 12 19  9 16 37.0000000  0 15G10G12G14G22G25G26G31G32C 1C 2C 3C 6
                                C 7C 9C10
  23138241.512   121592270.467                          43.000                  
  23138253.323    94747267.403                          39.000                  
  23714353.447   124619775.952                          42.000                  
  23714362.310    97106356.055                          33.000                  
  20566998.751   108080317.399                          45.000                  
  20567006.828    84218468.956                          46.000                  
  23439194.795   123173807.826                          42.000                  
  23439201.353    95979628.428                          35.000                  
  21189175.241   111349877.180                          46.000                  
  21189186.588    86766191.573                          45.000                  
  23360082.090   122758064.233                          42.000                  
  23360094.420    95655695.112                          37.000                  
  20696747.282   108762167.283                          50.000                  
  20696755.216    84749786.804                          49.000                  
  20517653.623   107821000.723                          50.000                  
  20517664.898    84016412.346                          51.000                  
                 197603063.210                          44.000                  
                 197603063.210                          44.000    37947590.522  
                 200178161.006                          41.000                  
                 200178161.006                          41.000    38442111.587  
                 195596127.370                          45.000                  
                 195596127.370                          45.000    37562179.909  
                 189800834.337                          47.000                  
                 189800834.337                          47.000    36449254.791  
                 189077211.450                          46.000                  
                 189077211.450                          46.000    36310290.009  
                 187309892.909                          46.000                  
                 187309892.909                          46.000    35970895.579  
                 195395958.994                          44.000                  
                 195395958.994                          44.000    37523738.995  
 17 12 19  9 16 38.0000000  0 15G10G12G14G22G25G26G31G32C 1C 2C 3C 6
                                C 7C 9C10
  23138926.163   121595869.075                          43.000                  
  23138938.100    94750071.501                          39.000                  
  23714999.180   124623169.885                          42.000                  
  23715008.293    97109000.690                          32.000                  
  20566835.929   108079460.419                          45.000                  
  20566843.755    84217801.177                          47.000                  
  23438827.337   123171875.659                          42.000                  
  23438833.609    95978122.836                          35.000                  
  21189486.287   111351511.990                          47.000                  
  21189497.687    86767465.456                          45.000                  
  23359397.421   122754467.177                          42.000                  
  23359409.893    95652892.216                          37.000                  
  20696567.823   108761223.926                          50.000                  
  20696575.703    84749051.720                          49.000                  
  20517766.716   107821594.520                          50.000                  
  20517777.902    84016875.045                          52.000                  
                 197603018.892                          44.000                  
                 197603018.892                          44.000    37947581.945  
                 200178193.143                          41.000                  
                 200178193.143                          41.000    38442117.555  
                 195596099.810                          44.000                  
                 195596099.810                          44.000    37562174.441  
                 189801338.757                          47.000                  
                 189801338.757                          47.000    36449351.802  
                 189076872.148                          46.000                  
                 189076872.148                          46.000    36310224.733  
                 187309842.340                          47.000                  
                 187309842.340                          47.000    35970885.930  
                 195395252.717                          45.000                  
                 195395252.717                          45.000    37523603.333  
 17 12 19  9 16 39.0000000  0 15G10G12G14G22G25G26G31G32C 1C 2C 3C 6
                                C 7C 9C10
  23139611.583   121599468.613                          43.000                  
  23139623.145    94752876.339                          39.000                  
  23715645.181   124626564.854                          42.000                  
  23715654.508    97111646.102                          32.000                  
  20566672.945   108078604.532                          45.000                  
  20566680.879    84217134.247                          47.000                  
  23438460.039   123169944.710                          41.000                  
  23438466.221    95976618.180                          35.000                  
  21189797.637   111353148.171                          46.000                  
  21189809.037    86768740.397                          45.000                  
  23358713.341   122750871.090                          42.000                  
  23358725.617    95650090.065                          37.000                  
  20696388.418   108760281.683                          50.000                  
  20696396.423    84748317.500                          49.000                  
  20517879.881   107822189.535                          50.000                  
  20517891.138    84017338.684                          51.000                  
                 197602975.308                          44.000                  
                 197602975.308                          44.000    37947573.618  
                 200178226.015                          41.000                  
                 200178226.015                          41.000    38442123.613  
                 195596072.986                          44.000                  
                 195596072.986                          44.000    37562169.170  
                 189801844.063                          47.000                  
                 189801844.063                          47.000    36449448.778  
                 189076533.681                          46.000                  
                 189076533.681                          46.000    36310159.976  
                 187309792.632                          47.000                  
                 187309792.632                          47.000    35970876.334  
                 195394547.283                          45.000                  
                 195394547.283                          45.000    37523467.832  
 17 12 19  9 16 40.0000000  0 15G10G12G14G22G25G26G31G32C 1C 2C 3C 6
                                C 7C 9C10
  23140295.627   121603066.924                          43.000                  
  23140307.886    94755680.220                          39.000                  
  23716291.199   124629958.708                          42.000                  
  23716300.331    97114290.668                          33.000                  
  20566509.766   108077747.602                          45.000                  
  20566517.860    84216466.517                          47.000                  
  23438092.366   123168012.883                          41.000                  
  23438098.602    95975112.883                          35.000                  
  21190108.754   111354783.557                          46.000                  
  21190120.208    86770014.726                          45.000                  
  23358028.636   122747273.814                          42.000                  
  23358041.019    95647286.998                          37.000                  
  20696208.977   108759338.381                          50.000                  
  20696216.947    84747582.466                          49.000                  
  20517992.867   107822783.609                          50.000                  
  20518004.213    84017801.608                          51.000                  
                 197602930.351                          44.000                  
                 197602930.351                          44.000    37947564.809  
                 200178257.497                          41.000                  
                 200178257.497                          41.000    38442129.831  
                 195596044.798                          44.000                  
                 195596044.798                          44.000    37562163.702  
                 189802348.102                          47.000                  
                 189802348.102                          47.000    36449545.520  
                 189076193.931                          46.000                  
                 189076193.931                          46.000    36310094.611  
                 187309741.629                          46.000                  
                 187309741.629                          46.000    35970866.577  
                 195393840.581                          45.000                  
                 195393840.581                          45.000    37523332.064  
 17 12 19  9 16 41.0000000  0 15G10G12G14G22G25G26G31G32C 1C 2C 3C 6
                                C 7C 9C10
  23140981.333   121606666.557                          43.000                  
  23140992.877    94758485.119                          39.000                  
  23716937.308   124633353.970                          42.000                  
  23716946.439    97116936.336                          34.000                  
  20566347.086   108076892.164                          46.000                  
  20566355.056    84215799.935                          47.000                  
  23437724.764   123166082.659                          42.000                  
  23437731.358    95973608.812                          35.000                  
  21190420.462   111356420.677                          46.000                  
  21190431.737    86771290.402                          45.000                  
  23357344.163   122743677.891                          42.000                  
  23357356.761    95644484.978                          37.000                  
  20696029.769   108758396.564                          50.000                  
  20696037.756    84746848.576                          49.000                  
  20518106.317   107823379.266                          50.000                  
  20518117.557    84018265.752                          51.000                  
                 197602886.487                          44.000                  
                 197602886.487                          44.000    37947556.482  
                 200178290.073                          42.000                  
                 200178290.073                          42.000    38442136.139  
                 195596017.703                          44.000                  
                 195596017.703                          44.000    37562158.538  
                 189802853.374                          47.000                  
                 189802853.374                          47.000    36449642.567  
                 189075855.385                          46.000                  
                 189075855.385                          46.000    36310029.782  
                 187309691.848                          47.000                  
                 187309691.848                          47.000    35970856.982  
                 195393135.103                          45.000                  
                 195393135.103                          45.000    37523196.473  
 17 12 19  9 16 42.0000000  0 15G10G12G14G22G25G26G31G32C 1C 2C 3C 6
                                C 7C 9C10
  23141665.788   121610266.159                          43.000                  
  23141677.939    94761290.013                          39.000                  
  23717583.291   124636749.303                          42.000                  
  23717592.457    97119582.050                          32.000                  
  20566184.120   108076036.854                          45.000                  
  20566192.304    84215133.460                          46.000                  
  23437357.734   123164152.684                          42.000                  
  23437364.006    95972104.922                          35.000                  
  21190732.026   111358058.181                          46.000                  
  21190743.355    86772566.381                          45.000                  
  23356660.012   122740081.947                          42.000                  
  23356672.413    95641682.928                          36.000                  
  20695850.632   108757454.876                          50.000                  
  20695858.530    84746114.796                          48.000                  
  20518219.696   107823975.153                          50.000                  
  20518230.989    84018730.079                          51.000                  
                 197602842.426                          44.000                  
                 197602842.426                          44.000    37947548.137  
                 200178322.480                          41.000                  
                 200178322.480                          41.000    38442142.500  
                 195595990.402                          44.000                  
                 195595990.402                          44.000    37562153.606  
                 189803358.570                          47.000                  
                 189803358.570                          47.000    36449739.453  
                 189075516.720                          46.000                  
                 189075516.720                          46.000    36309964.507  
                 187309641.962                          46.000                  
                 187309641.962                          46.000    35970847.350  
                 195392429.492                          45.000                  
                 195392429.492                          45.000    37523061.259  
 17 12 19  9 16 43.0000000  0 15G10G12G14G22G25G26G31G32C 1C 2C 3C 6
                                C 7C 9C10
  23142350.851   121613865.551                          43.000                  
  23142362.895    94764094.727                          39.000                  
  23718229.756   124640144.539                          42.000                  
  23718238.548    97122227.673                          32.000                  
  20566021.691   108075181.509                          45.000                  
  20566029.536    84214466.957                          46.000                  
  23436990.615   123162222.835                          42.000                  
  23436996.905    95970601.151                          35.000                  
  21191043.626   111359695.917                          46.000                  
  21191054.991    86773842.537                          45.000                  
  23355975.717   122736485.860                          42.000                  
  23355988.101    95638880.805                          36.000                  
  20695671.459   108756513.156                          50.000                  
  20695679.304    84745380.988                          48.000                  
  20518333.111   107824571.137                          50.000                  
  20518344.368    84019194.484                          51.000                  
                 197602797.980                          44.000                  
                 197602797.980                          44.000    37947539.506  
                 200178354.486                          41.000                  
                 200178354.486                          41.000    38442148.647  
                 195595962.708                          44.000                  
                 195595962.708                          44.000    37562148.281  
                 189803863.496                          47.000                  
                 189803863.496                          47.000    36449836.518  
                 189075177.772                          46.000                  
                 189075177.772                          46.000    36309899.410  
                 187309591.815                          47.000                  
                 187309591.815                          47.000    35970837.790  
                 195391723.592                          45.000                  
                 195391723.592                          45.000    37522925.883  
 17 12 19  9 16 44.0000000  0 15G10G12G14G22G25G26G31G32C 1C 2C 3C 6
                                C 7C 9C10
  23143036.146   121617467.575                          43.000                  
  23143048.350    94766901.492                          39.000                  
  23718876.204   124643542.501                          42.000                  
  23718885.174    97124875.456                          33.000                  
  20565859.226   108074328.967                          46.000                  
  20565867.303    84213802.641                          47.000                  
  23436624.211   123160295.915                          42.000                  
  23436630.126    95969099.645                          35.000                  
  21191355.851   111361336.699                          46.000                  
  21191367.234    86775121.073                          45.000                  
  23355291.834   122732892.420                          42.000                  
  23355304.271    95636080.719                          37.000                  
  20695492.805   108755574.229                          50.000                  
  20695500.649    84744649.361                          49.000                  
  20518447.097   107825170.002                          50.000                  
  20518458.337    84019661.128                          51.000                  
                 197602755.966                          44.000                  
                 197602755.966                          44.000    37947531.376  
                 200178388.876                          41.000                  
                 200178388.876                          41.000    38442155.491  
                 195595937.434                          44.000                  
                 195595937.434                          44.000    37562143.135  
                 189804370.975                          47.000                  
                 189804370.975                          47.000    36449933.743  
                 189074841.334                          46.000                  
                 189074841.334                          46.000    36309834.795  
                 187309544.165                          47.000                  
                 187309544.165                          47.000    35970828.713  
                 195391020.220                          45.000                  
                 195391020.220                          45.000    37522790.704  
 17 12 19  9 16 45.0000000  0 15G10G12G14G22G25G26G31G32C 1C 2C 3C 6
                                C 7C 9C10
  23143720.887   121621065.261                          43.000                  
  23143732.984    94769704.889                          39.000                  
  23719522.366   124646936.232                          42.000                  
  23719530.961    97127519.908                          33.000                  
  20565696.046   108073472.272                          45.000                  
  20565704.284    84213135.091                          47.000                  
  23436256.735   123158364.974                          42.000                  
  23436262.649    95967595.034                          35.000                  
  21191667.469   111362973.570                          46.000                  
  21191678.727    86776396.557                          45.000                  
  23354607.022   122729294.701                          42.000                  
  23354619.673    95633277.308                          37.000                  
  20695313.275   108754631.133                          50.000                  
  20695321.209    84743914.487                          49.000                  
  20518560.279   107825764.826                          50.000                  
  20518571.537    84020124.630                          51.000                  
                 197602709.459                          44.000                  
                 197602709.459                          44.000    37947522.441  
                 200178418.829                          41.000                  
                 200178418.829                          41.000    38442161.120  
                 195595907.688                          44.000                  
                 195595907.688                          44.000    37562137.452  
                 189804874.101                          47.000                  
                 189804874.101                          47.000    36450030.718  
                 189074500.517                          46.000                  
                 189074500.517                          46.000    36309769.359  
                 187309492.172                          46.000                  
                 187309492.172                          46.000    35970818.813  
                 195390312.474                          44.000                  
                 195390312.474                          44.000    37522654.846  
 17 12 19  9 16 46.0000000  0 15G10G12G14G22G25G26G31G32C 1C 2C 3C 6
                                C 7C 9C10
  23144406.289   121624666.437                          43.000                  
  23144418.297    94772511.009                          39.000                  
  23720168.527   124650333.557                          42.000                  
  23720177.337    97130167.190                          32.000                  
  20565533.760   108072619.225                          45.000                  
  20565541.926    84212470.379                          47.000                  
  23435889.794   123156437.822                          41.000                  
  23435895.870    95966093.355                          35.000                  
  21191979.712   111364614.349                          46.000                  
  21191990.916    86777675.093                          45.000                  
  23353923.353   122725700.488                          42.000                  
  23353935.718    95630476.619                          37.000                  
  20695134.531   108753691.698                          50.000                  
  20695142.411    84743182.456                          49.000                  
  20518674.069   107826363.398                          50.000                  
  20518685.416    84020591.049                          51.000                  
                 197602666.226                          44.000                  
                 197602666.226                          44.000    37947514.364  
                 200178452.027                          41.000                  
                 200178452.027                          41.000    38442167.624  
                 195595881.195                          44.000                  
                 195595881.195                          44.000    37562131.967  
                 189805380.620                          47.000                  
                 189805380.620                          47.000    36450128.211  
                 189074163.073                          46.000                  
                 189074163.073                          46.000    36309704.566  
                 187309443.539                          46.000                  
                 187309443.539                          46.000    35970809.450  
                 195389608.058                          45.000                  
                 195389608.058                          45.000    37522519.220  
 17 12 19  9 16 47.0000000  0 15G10G12G14G22G25G26G31G32C 1C 2C 3C 6
                                C 7C 9C10
  23145091.173   121628265.547                          43.000                  
  23145103.163    94775315.496                          39.000                  
  23720814.635   124653728.949                          42.000                  
  23720823.481    97132812.936                          33.000                  
  20565371.062   108071764.312                          45.000                  
  20565379.282    84211804.208                          47.000                  
  23435522.747   123154508.933                          42.000                  
  23435528.929    95964590.316                          35.000                  
  21192291.706   111366253.523                          46.000                  
  21192302.784    86778952.365                          45.000                  
  23353238.737   122722104.275                          42.000                  
  23353251.353    95627674.375                          37.000                  
  20694955.358   108752750.386                          50.000                  
  20694963.310    84742448.971                          49.000                  
  20518787.663   107826960.218                          50.000                  
  20518799.010    84021056.104                          51.000                  
                 197602620.784                          44.000                  
                 197602620.784                          44.000    37947505.734  
                 200178483.030                          41.000                  
                 200178483.030                          41.000    38442173.342  
                 195595852.518                          45.000                  
                 195595852.518                          45.000    37562126.356  
                 189805885.078                          47.000                  
                 189805885.078                          47.000    36450224.829  
                 189073823.507                          46.000                  
                 189073823.507                          46.000    36309639.433  
                 187309392.798                          47.000                  
                 187309392.798                          47.000    35970799.551  
                 195388901.556                          45.000                  
                 195388901.556                          45.000    37522383.862  
 17 12 19  9 16 48.0000000  0 15G10G12G14G22G25G26G31G32C 1C 2C 3C 6
                                C 7C 9C10
  23145776.682   121631868.641                          43.000                  
  23145788.833    94778123.098                          39.000                  
  23721461.941   124657128.393                          42.000                  
  23721470.250    97135461.844                          33.000                  
  20565209.187   108070913.536                          45.000                  
  20565217.424    84211141.266                          47.000                  
  23435156.414   123152584.311                          42.000                  
  23435162.757    95963090.612                          35.000                  
  21192604.378   111367897.081                          46.000                  
  21192615.546    86780233.055                          45.000                  
  23352555.336   122718512.079                          43.000                  
  23352567.845    95624875.261                          37.000                  
  20694776.882   108751813.211                          50.000                  
  20694784.977    84741718.698                          49.000                  
  20518902.167   107827561.266                          50.000                  
  20518913.389    84021524.442                          51.000                  
                 197602579.086                          44.000                  
                 197602579.086                          44.000    37947497.585  
                 200178517.784                          41.000                  
                 200178517.784                          41.000    38442179.704  
                 195595827.570                          44.000                  
                 195595827.570                          44.000    37562121.871  
                 189806393.388                          47.000                  
                 189806393.388                          47.000    36450322.466  
                 189073487.793                          46.000                  
                 189073487.793                          46.000    36309574.980  
                 187309345.928                          47.000                  
                 187309345.928                          47.000    35970790.384  
                 195388198.896                          45.000                  
                 195388198.896                          45.000    37522248.754  
 17 12 19  9 16 49.0000000  0 16G10G12G14G22G25G26G29G31G32C 1C 2C 3
                                C 6C 7C 9C10
  23146461.262   121635465.310                          43.000                  
  23146473.306    94780925.701                          39.000                  
  23722107.602   124660521.510                          42.000                  
  23722115.661    97138105.837                          33.000                  
  20565046.203   108070056.516                          45.000                  
  20565054.351    84210473.458                          47.000                  
  23434789.134   123150653.567                          42.000                  
  23434795.477    95961586.129                          34.000                  
  21192915.888   111369534.645                          46.000                  
  21192927.164    86781509.082                          45.000                  
  23351870.881   122714913.456                          43.000                  
  23351883.121    95622071.128                          37.000                  
  23999274.947   126117040.601                          43.000                  
  23999285.186    98273060.901                          32.000                  
  20694597.388   108750869.774                          50.000                  
  20694605.465    84740983.550                          49.000                  
  20519015.368   107828156.182                          50.000                  
  20519026.625    84021988.017                          51.000                  
                 197602530.867                          44.000                  
                 197602530.867                          44.000    37947488.454  
                 200178545.986                          41.000                  
                 200178545.986                          41.000    38442184.689  
                 195595796.081                          45.000                  
                 195595796.081                          45.000    37562115.867  
                 189806895.278                          47.000                  
                 189806895.278                          47.000    36450418.672  
                 189073145.603                          46.000                  
                 189073145.603                          46.000    36309509.150  
                 187309292.600                          47.000                  
                 187309292.600                          47.000    35970780.073  
                 195387489.787                          44.000                  
                 195387489.787                          44.000    37522112.360  
 17 12 19  9 16 50.0000000  0 16G10G12G14G22G25G26G29G31G32C 1C 2C 3
                                C 6C 7C 9C10
  23147146.432   121639067.551                          43.000                  
  23147158.923    94783732.649                          39.000                  
  23722754.103   124663920.326                          42.000                  
  23722762.341    97140754.288                          33.000                  
  20564884.060   108069205.247                          45.000                  
  20564892.369    84209810.134                          47.000                  
  23434423.051   123148728.727                          42.000                  
  23434429.198    95960086.282                          35.000                  
  21193228.793   111371178.212                          46.000                  
  21193239.925    86782789.788                          45.000                  
  23351186.980   122711320.494                          42.000                  
  23351199.328    95619271.431                          37.000                  
  23998798.969   126114540.724                          43.000                  
  23998809.173    98271112.966                          32.000                  
  20694418.930   108749932.095                          50.000                  
  20694427.061    84740252.897                          49.000                  
  20519129.533   107828756.960                          50.000                  
  20519140.933    84022456.158                          51.000                  
                 197602487.980                          44.000                  
                 197602487.980                          44.000    37947479.984  
                 200178579.548                          42.000                  
                 200178579.548                          42.000    38442191.229  
                 195595769.964                          44.000                  
                 195595769.964                          44.000    37562110.631  
                 189807402.655                          47.000                  
                 189807402.655                          47.000    36450515.898  
                 189072808.898                          46.000                  
                 189072808.898                          46.000    36309444.304  
                 187309244.741                          46.000                  
                 187309244.741                          46.000    35970771.014  
                 195386786.135                          44.000                  
                 195386786.135                          44.000    37521977.288  
 17 12 19  9 16 51.0000000  0 16G10G12G14G22G25G26G29G31G32C 1C 2C 3
                                C 6C 7C 9C10
  23147832.138   121642670.108                          43.000                  
  23147844.414    94786539.823                          39.000                  
  23723400.908   124667319.559                          42.000                  
  23723409.092    97143403.054                          33.000                  
  20564722.256   108068354.471                          45.000                  
  20564730.475    84209147.187                          47.000                  
  23434056.665   123146804.512                          42.000                  
  23434063.008    95958586.869                          35.000                  
  21193541.662   111372822.521                          46.000                  
  21193552.883    86784071.057                          45.000                  
  23350503.490   122707727.866                          43.000                  
  23350515.587    95616471.971                          37.000                  
  23998323.671   126112041.237                          43.000                  
  23998333.499    98269165.266                          32.000                  
  20694240.651   108748994.897                          50.000                  
  20694248.674    84739522.604                          49.000                  
  20519244.002   107829358.322                          50.000                  
  20519255.384    84022924.738                          51.000                  
                 197602445.236                          44.000                  
                 197602445.236                          44.000    37947471.765  
                 200178613.225                          42.000                  
                 200178613.225                          42.000    38442197.501  
                 195595743.971                          44.000                  
                 195595743.971                          44.000    37562106.039  
                 189807910.283                          47.000                  
                 189807910.283                          47.000    36450613.338  
                 189072472.408                          46.000                  
                 189072472.408                          46.000    36309379.671  
                 187309197.129                          47.000                  
                 187309197.129                          47.000    35970762.008  
                 195386082.707                          45.000                  
                 195386082.707                          45.000    37521842.484  
 17 12 19  9 16 52.0000000  0 16G10G12G14G22G25G26G29G31G32C 1C 2C 3
                                C 6C 7C 9C10
  23148516.736   121646267.901                          43.000                  
  23148529.084    94789343.304                          38.000                  
  23724046.641   124670714.135                          43.000                  
  23724055.111    97146048.158                          33.000                  
  20564559.576   108067499.106                          45.000                  
  20564567.689    84208480.685                          46.000                  
  23433689.421   123144875.826                          42.000                  
  23433696.050    95957084.003                          34.000                  
  21193853.673   111374462.505                          46.000                  
  21193864.984    86785348.987                          45.000                  
  23349818.785   122704130.517                          42.000                  
  23349831.168    95613668.861                          36.000                  
  23997846.604   126109537.058                          43.000                  
  23997856.915    98267213.998                          31.000                  
  20694061.425   108748053.106                          50.000                  
  20694069.519    84738788.752                          48.000                  
  20519357.720   107829955.204                          50.000                  
  20519368.942    84023389.854                          51.000                  
                 197602397.606                          44.000                  
                 197602397.606                          44.000    37947462.776  
                 200178642.009                          41.000                  
                 200178642.009                          41.000    38442203.434  
                 195595713.085                          44.000                  
                 195595713.085                          44.000    37562100.017  
                 189808413.144                          47.000                  
                 189808413.144                          47.000    36450710.027  
                 189072131.126                          46.000                  
                 189072131.126                          46.000    36309314.396  
                 187309144.719                          47.000                  
                 187309144.719                          47.000    35970752.073  
                 195385374.473                          44.000                  
                 195385374.473                          44.000    37521706.554  
 17 12 19  9 16 53.0000000  0 16G10G12G14G22G25G26G29G31G32C 1C 2C 3
                                C 6C 7C 9C10
  23149202.871   121649872.061                          43.000                  
  23149214.950    94792151.748                          38.000                  
  23724694.429   124674115.155                          42.000                  
  23724702.345    97148698.314                          32.000                  
  20564398.058   108066650.276                          45.000                  
  20564406.063    84207819.249                          46.000                  
  23433323.945   123142953.824                          42.000                  
  23433330.414    95955586.343                          35.000                  
  21194167.024   111376109.250                          46.000                  
  21194178.281    86786632.154                          45.000                  
  23349135.420   122700539.565                          43.000                  
  23349147.874    95610870.696                          36.000                  
  23997371.413   126107039.311                          43.000                  
  23997381.616    98265267.675                          31.000                  
  20693883.467   108747117.833                          50.000                  
  20693891.526    84738059.963                          48.000                  
  20519472.475   107830558.706                          50.000                  
  20519483.768    84023860.113                          51.000                  
                 197602356.072                          44.000                  
                 197602356.072                          44.000    37947454.610  
                 200178676.894                          41.000                  
                 200178676.894                          41.000    38442210.081  
                 195595688.276                          44.000                  
                 195595688.276                          44.000    37562095.282  
                 189808922.237                          47.000                  
                 189808922.237                          47.000    36450807.788  
                 189071796.022                          46.000                  
                 189071796.022                          46.000    36309250.032  
                 187309098.517                          47.000                  
                 187309098.517                          47.000    35970743.174  
                 195384672.461                          45.000                  
                 195384672.461                          45.000    37521571.518  
 17 12 19  9 16 54.0000000  0 16G10G12G14G22G25G26G29G31G32C 1C 2C 3
                                C 6C 7C 9C10
  23149887.790   121653470.798                          43.000                  
  23149899.691    94794955.961                          39.000                  
  23725340.448   124677510.893                          42.000                  
  23725348.453    97151344.342                          33.000                  
  20564235.539   108065796.213                          45.000                  
  20564243.562    84207153.746                          46.000                  
  23432957.220   123141026.710                          42.000                  
  23432963.634    95954084.691                          35.000                  
  21194479.428   111377751.027                          47.000                  
  21194490.685    86787911.460                          45.000                  
  23348451.054   122696943.237                          43.000                  
  23348463.509    95608068.378                          36.000                  
  23996895.114   126104536.247                          43.000                  
  23996905.157    98263317.249                          31.000                  
  20693704.437   108746177.333                          50.000                  
  20693712.550    84737327.109                          48.000                  
  20519586.319   107831157.087                          50.000                  
  20519597.630    84024326.380                          51.000                  
                 197602308.992                          44.000                  
                 197602308.992                          44.000    37947445.408  
                 200178706.245                          42.000                  
                 200178706.245                          42.000    38442215.567  
                 195595657.959                          44.000                  
                 195595657.959                          44.000    37562089.546  
                 189809425.924                          47.000                  
                 189809425.924                          47.000    36450904.513  
                 189071455.505                          46.000                  
                 189071455.505                          46.000    36309184.899  
                 187309046.893                          47.000                  
                 187309046.893                          47.000    35970733.167  
                 195383964.995                          44.000                  
                 195383964.995                          44.000    37521435.499  
 17 12 19  9 16 55.0000000  0 16G10G12G14G22G25G26G29G31G32C 1C 2C 3
                                C 6C 7C 9C10
  23150573.443   121657075.090                          43.000                  
  23150585.540    94797764.491                          39.000                  
  23725987.735   124680912.265                          42.000                  
  23725995.580    97153994.775                          32.000                  
  20564074.039   108064947.867                          45.000                  
  20564082.134    84206492.702                          47.000                  
  23432591.601   123139105.441                          42.000                  
  23432598.016    95952587.601                          35.000                  
  21194793.011   111379398.772                          46.000                  
  21194804.251    86789195.425                          45.000                  
  23347767.617   122693352.505                          42.000                  
  23347780.358    95605270.419                          37.000                  
  23996420.049   126102038.811                          43.000                  
  23996429.787    98261371.198                          32.000                  
  20693526.569   108745242.541                          50.000                  
  20693534.628    84736598.699                          49.000                  
  20519701.181   107831761.287                          50.000                  
  20519712.599    84024797.189                          51.000                  
                 197602267.233                          44.000                  
                 197602267.233                          44.000    37947437.581  
                 200178740.920                          41.000                  
                 200178740.920                          41.000    38442222.143  
                 195595632.935                          44.000                  
                 195595632.935                          44.000    37562084.828  
                 189809935.048                          47.000                  
                 189809935.048                          47.000    36451002.078  
                 189071120.355                          46.000                  
                 189071120.355                          46.000    36309120.267  
                 187309000.671                          46.000                  
                 187309000.671                          46.000    35970724.358  
                 195383262.945                          44.000                  
                 195383262.945                          44.000    37521300.820  
 17 12 19  9 16 56.0000000  0 16G10G12G14G22G25G26G29G31G32C 1C 2C 3
                                C 6C 7C 9C10
  23151258.523   121660675.165                          43.000                  
  23151270.567    94800569.740                          39.000                  
  23726634.308   124684309.543                          42.000                  
  23726642.063    97156641.984                          32.000                  
  20563911.824   108064095.489                          45.000                  
  20563919.954    84205828.507                          47.000                  
  23432225.036   123137180.267                          42.000                  
  23432231.666    95951087.450                          35.000                  
  21195105.684   111381042.730                          46.000                  
  21195117.084    86790476.421                          45.000                  
  23347083.627   122689757.583                          43.000                  
  23347096.243    95602469.158                          36.000                  
  23995944.250   126099537.220                          42.000                  
  23995953.721    98259421.904                          32.000                  
  20693347.932   108744303.705                          50.000                  
  20693355.991    84735867.139                          49.000                  
  20519815.364   107832361.548                          50.000                  
  20519826.836    84025264.914                          51.000                  
                 197602221.134                          44.000                  
                 197602221.134                          44.000    37947428.682  
                 200178771.222                          41.000                  
                 200178771.222                          41.000    38442228.022  
                 195595603.552                          44.000                  
                 195595603.552                          44.000    37562079.092  
                 189810439.951                          47.000                  
                 189810439.951                          47.000    36451099.268  
                 189070780.983                          46.000                  
                 189070780.983                          46.000    36309055.366  
                 187308950.209                          47.000                  
                 187308950.209                          47.000    35970714.369  
                 195382556.642                          45.000                  
                 195382556.642                          45.000    37521165.069  
 17 12 19  9 16 57.0000000  0 16G10G12G14G22G25G26G29G31G32C 1C 2C 3
                                C 6C 7C 9C10
  23151944.104   121664279.064                          43.000                  
  23151956.326    94803377.986                          38.000                  
  23727281.185   124687710.724                          42.000                  
  23727289.351    97159292.251                          32.000                  
  20563750.306   108063247.117                          45.000                  
  20563758.526    84205167.440                          46.000                  
  23431859.633   123135259.260                          42.000                  
  23431866.083    95949590.591                          35.000                  
  21195419.392   111382690.936                          46.000                  
  21195430.757    86791760.745                          45.000                  
  23346400.226   122686166.531                          42.000                  
  23346412.842    95599670.961                          36.000                  
  23995468.773   126097039.547                          42.000                  
  23995478.422    98257475.665                          32.000                  
  20693170.046   108743368.866                          50.000                  
  20693178.123    84735138.700                          48.000                  
  20519930.423   107832965.907                          50.000                  
  20519941.805    84025735.843                          51.000                  
                 197602178.642                          44.000                  
                 197602178.642                          44.000    37947420.606  
                 200178805.138                          41.000                  
                 200178805.138                          41.000    38442234.758  
                 195595577.786                          45.000                  
                 195595577.786                          45.000    37562073.785  
                 189810948.575                          47.000                  
                 189810948.575                          47.000    36451197.101  
                 189070445.284                          46.000                  
                 189070445.284                          46.000    36308990.663  
                 187308903.455                          47.000                  
                 187308903.455                          47.000    35970705.452  
                 195381854.008                          45.000                  
                 195381854.008                          45.000    37521030.337  
 17 12 19  9 16 58.0000000  0 16G10G12G14G22G25G26G29G31G32C 1C 2C 3
                                C 6C 7C 9C10
  23152629.899   121667882.795                          43.000                  
  23152642.032    94806186.080                          39.000                  
  23727928.740   124691111.867                          42.000                  
  23727936.549    97161942.504                          33.000                  
  20563588.859   108062398.750                          45.000                  
  20563597.079    84204506.375                          47.000                  
  23431494.265   123133338.376                          42.000                  
  23431500.483    95948093.763                          35.000                  
  21195733.101   111384339.415                          46.000                  
  21195744.430    86793045.263                          45.000                  
  23345717.147   122682575.362                          42.000                  
  23345729.423    95596872.633                          36.000                  
  23994993.404   126094541.791                          42.000                  
  23995002.999    98255529.375                          32.000                  
  20692992.107   108742434.036                          50.000                  
  20693000.219    84734410.254                          49.000                  
  20520045.642   107833570.394                          50.000                  
  20520056.828    84026206.870                          51.000                  
                 197602135.802                          44.000                  
                 197602135.802                          44.000    37947412.547  
                 200178838.735                          41.000                  
                 200178838.735                          41.000    38442241.298  
                 195595551.695                          44.000                  
                 195595551.695                          44.000    37562068.871  
                 189811456.996                          47.000                  
                 189811456.996                          47.000    36451294.808  
                 189070109.369                          46.000                  
                 189070109.369                          46.000    36308926.191  
                 187308856.483                          47.000                  
                 187308856.483                          47.000    35970696.518  
                 195381151.162                          45.000                  
                 195381151.162                          45.000    37520895.336  
 17 12 19  9 16 59.0000000  0 16G10G12G14G22G25G26G29G31G32C 1C 2C 3
                                C 6C 7C 9C10
  23153314.730   121671481.527                          43.000                  
  23153326.934    94808990.277                          39.000                  
  23728574.795   124694508.122                          42.000                  
  23728583.104    97164588.954                          32.000                  
  20563426.412   108061545.565                          46.000                  
  20563434.757    84203841.562                          47.000                  
  23431127.664   123131412.805                          42.000                  
  23431134.132    95946593.333                          36.000                  
  21196046.112   111385983.314                          46.000                  
  21196057.263    86794326.236                          45.000                  
  23345032.442   122678979.237                          43.000                  
  23345045.165    95594070.462                          37.000                  
  23994517.033   126092039.135                          42.000                  
  23994526.665    98253579.247                          32.000                  
  20692813.255   108741494.379                          50.000                  
  20692821.475    84733678.063                          49.000                  
  20520159.754   107834170.169                          50.000                  
  20520171.011    84026674.236                          51.000                  
                 197602087.827                          44.000                  
                 197602087.827                          44.000    37947403.416  
                 200178867.181                          41.000                  
                 200178867.181                          41.000    38442246.748  
                 195595520.457                          44.000                  
                 195595520.457                          44.000    37562063.117  
                 189811960.410                          47.000                  
                 189811960.410                          47.000    36451391.694  
                 189069768.407                          46.000                  
                 189069768.407                          46.000    36308860.594  
                 187308804.475                          47.000                  
                 187308804.475                          47.000    35970686.404  
                 195380443.276                          45.000                  
                 195380443.276                          45.000    37520759.371  
 17 12 19  9 17  0.0000000  0 16G10G12G14G22G25G26G29G31G32C 1C 2C 3
                                C 6C 7C 9C10
  23154001.615   121675087.767                          43.000                  
  23154013.051    94811800.334                          38.000                  
  23729222.100   124697911.991                          42.000                  
  23729231.017    97167241.320                          33.000                  
  20563265.805   108060700.065                          46.000                  
  20563273.864    84203182.726                          47.000                  
  23430762.743   123129495.058                          42.000                  
  23430769.229    95945099.003                          36.000                  
  21196360.321   111387635.147                          46.000                  
  21196371.632    86795613.379                          45.000                  
  23344349.595   122675390.632                          43.000                  
  23344362.336    95591274.145                          37.000                  
  23994042.361   126089544.053                          42.000                  
  23994051.867    98251635.032                          33.000                  
  20692635.959   108740562.404                          50.000                  
  20692644.125    84732951.844                          49.000                  
  20520275.348   107834777.732                          50.000                  
  20520286.624    84027147.657                          52.000                  
                 197602047.115                          44.000                  
                 197602047.115                          44.000    37947395.571  
                 200178902.880                          42.000                  
                 200178902.880                          42.000    38442254.182  
                 195595496.479                          45.000                  
                 195595496.479                          45.000    37562058.847  
                 189812471.195                          47.000                  
                 189812471.195                          47.000    36451489.742  
                 189069434.784                          46.000                  
                 189069434.784                          46.000    36308796.319  
                 187308759.829                          47.000                  
                 187308759.829                          47.000    35970678.023  
                 195379742.742                          45.000                  
                 195379742.742                          45.000    37520625.032  
 17 12 19  9 17  1.0000000  0 16G10G12G14G22G25G26G29G31G32C 1C 2C 3
                                C 6C 7C 9C10
  23154686.642   121678688.558                          43.000                  
  23154698.274    94814606.143                          39.000                  
  23729868.905   124701310.487                          42.000                  
  23729877.804    97169889.478                          32.000                  
  20563104.037   108059849.292                          45.000                  
  20563111.953    84202519.777                          47.000                  
  23430397.035   123127572.158                          42.000                  
  23430403.414    95943600.630                          36.000                  
  21196673.637   111389281.954                          46.000                  
  21196684.984    86796896.603                          45.000                  
  23343665.855   122671796.628                          42.000                  
  23343678.488    95588473.632                          36.000                  
  23993567.045   126087043.592                          42.000                  
  23993575.961    98249686.593                          32.000                  
  20692457.465   108739625.135                          50.000                  
  20692465.792    84732221.502                          49.000                  
  20520389.960   107835380.101                          50.000                  
  20520401.271    84027617.031                          52.000                  
                 197602000.809                          44.000                  
                 197602000.809                          44.000    37947386.261  
                 200178933.005                          42.000                  
                 200178933.005                          42.000    38442259.775  
                 195595466.916                          44.000                  
                 195595466.916                          44.000    37562053.146  
                 189812976.545                          47.000                  
                 189812976.545                          47.000    36451586.663  
                 189069095.688                          46.000                  
                 189069095.688                          46.000    36308731.437  
                 187308709.719                          47.000                  
                 187308709.719                          47.000    35970668.535  
                 195379036.723                          45.000                  
                 195379036.723                          45.000    37520489.352  
 17 12 19  9 17  2.0000000  0 16G10G12G14G22G25G26G29G31G32C 1C 2C 3
                                C 6C 7C 9C10
  23155372.294   121682292.962                          43.000                  
  23155384.248    94817414.774                          38.000                  
  23730516.228   124704712.725                          42.000                  
  23730525.181    97172540.600                          31.000                  
  20562942.608   108059002.296                          45.000                  
  20562950.756    84201859.794                          46.000                  
  23430031.310   123125653.173                          42.000                  
  23430038.297    95942105.303                          35.000                  
  21196987.864   111390932.786                          46.000                  
  21196999.139    86798182.970                          45.000                  
  23342982.901   122668206.269                          43.000                  
  23342995.248    95585675.951                          37.000                  
  23993091.335   126084546.808                          42.000                  
  23993100.770    98247741.051                          31.000                  
  20692279.919   108738691.637                          50.000                  
  20692288.156    84731494.111                          49.000                  
  20520505.233   107835986.358                          50.000                  
  20520516.598    84028089.444                          51.000                  
                 197601957.919                          44.000                  
                 197601957.919                          44.000    37947378.042  
                 200178966.514                          41.000                  
                 200178966.514                          41.000    38442265.958  
                 195595440.755                          44.000                  
                 195595440.755                          44.000    37562047.929  
                 189813485.405                          47.000                  
                 189813485.405                          47.000    36451684.192  
                 189068760.065                          46.000                  
                 189068760.065                          46.000    36308666.965  
                 187308663.096                          46.000                  
                 187308663.096                          46.000    35970659.583  
                 195378334.176                          45.000                  
                 195378334.176                          45.000    37520354.227  
 17 12 19  9 17  3.0000000  0 16G10G12G14G22G25G26G29G31G32C 1C 2C 3
                                C 6C 7C 9C10
  23156057.928   121685895.684                          43.000                  
  23156069.847    94820222.097                          38.000                  
  23731163.712   124708113.369                          42.000                  
  23731172.415    97175190.418                          32.000                  
  20562781.090   108058153.818                          45.000                  
  20562789.256    84201198.638                          46.000                  
  23429666.121   123123732.846                          42.000                  
  23429673.018    95940608.956                          35.000                  
  21197301.804   111392582.392                          46.000                  
  21197313.026    86799468.369                          45.000                  
  23342299.285   122664614.296                          42.000                  
  23342311.704    95582876.995                          36.000                  
  23992616.234   126082048.445                          42.000                  
  23992625.562    98245794.280                          31.000                  
  20692101.997   108737756.655                          50.000                  
  20692110.199    84730765.543                          48.000                  
  20520620.542   107836591.242                          50.000                  
  20520631.692    84028560.773                          51.000                  
                 197601913.186                          44.000                  
                 197601913.186                          44.000    37947369.536  
                 200178998.191                          41.000                  
                 200178998.191                          41.000    38442272.087  
                 195595412.756                          44.000                  
                 195595412.756                          44.000    37562042.479  
                 189813992.559                          47.000                  
                 189813992.559                          47.000    36451781.382  
                 189068422.719                          46.000                  
                 189068422.719                          46.000    36308602.315  
                 187308614.757                          47.000                  
                 187308614.757                          47.000    35970650.148  
                 195377629.929                          45.000                  
                 195377629.929                          45.000    37520219.030  
 17 12 19  9 17  4.0000000  0 16G10G12G14G22G25G26G29G31G32C 1C 2C 3
                                C 6C 7C 9C10
  23156743.313   121689498.779                          43.000                  
  23156755.463    94823029.694                          38.000                  
  23731811.036   124711514.483                          42.000                  
  23731819.416    97177840.659                          32.000                  
  20562619.733   108057305.862                          46.000                  
  20562627.863    84200537.900                          47.000                  
  23429300.842   123121813.165                          42.000                  
  23429307.757    95939113.114                          35.000                  
  21197616.049   111394232.764                          46.000                  
  21197627.146    86800754.382                          45.000                  
  23341615.992   122661022.701                          42.000                  
  23341628.357    95580078.368                          37.000                  
  23992140.971   126079550.501                          42.000                  
  23992150.335    98243847.846                          32.000                  
  20691924.307   108736822.188                          50.000                  
  20691932.366    84730037.399                          49.000                  
  20520735.672   107837196.754                          50.000                  
  20520746.930    84029032.611                          51.000                  
                 197601868.610                          44.000                  
                 197601868.610                          44.000    37947361.405  
                 200179030.054                          42.000                  
                 200179030.054                          42.000    38442278.234  
                 195595384.931                          44.000                  
                 195595384.931                          44.000    37562037.082  
                 189814500.029                          47.000                  
                 189814500.029                          47.000    36451878.858  
                 189068085.648                          46.000                  
                 189068085.648                          46.000    36308537.647  
                 187308566.686                          47.000                  
                 187308566.686                          47.000    35970640.892  
                 195376925.948                          45.000                  
                 195376925.948                          45.000    37520083.850  
 17 12 19  9 17  5.0000000  0 16G10G12G14G22G25G26G29G31G32C 1C 2C 3
                                C 6C 7C 9C10
  23157429.322   121693103.144                          43.000                  
  23157441.491    94825838.286                          39.000                  
  23732458.502   124714916.982                          42.000                  
  23732466.882    97180491.941                          33.000                  
  20562458.894   108056459.379                          45.000                  
  20562466.792    84199878.291                          47.000                  
  23428935.814   123119895.119                          42.000                  
  23428942.729    95937618.517                          36.000                  
  21197930.240   111395884.859                          46.000                  
  21197941.462    86802041.719                          45.000                  
  23340932.788   122657432.453                          42.000                  
  23340945.207    95577280.766                          37.000                  
  23991665.798   126077053.934                          42.000                  
  23991675.323    98241902.455                          31.000                  
  20691746.725   108735889.183                          50.000                  
  20691754.802    84729310.371                          49.000                  
  20520851.213   107837803.832                          50.000                  
  20520862.399    84029505.646                          51.000                  
                 197601825.147                          44.000                  
                 197601825.147                          44.000    37947352.900  
                 200179062.999                          41.000                  
                 200179062.999                          41.000    38442284.774  
                 195595358.206                          44.000                  
                 195595358.206                          44.000    37562031.704  
                 189815008.703                          47.000                  
                 189815008.703                          47.000    36451976.690  
                 189067749.751                          46.000                  
                 189067749.751                          46.000    36308473.069  
                 187308519.824                          47.000                  
                 187308519.824                          47.000    35970631.778  
                 195376223.155                          45.000                  
                 195376223.155                          45.000    37519948.904  
 17 12 19  9 17  6.0000000  0 16G10G12G14G22G25G26G29G31G32C 1C 2C 3
                                C 6C 7C 9C10
  23158114.421   121696705.218                          43.000                  
  23158126.947    94828645.117                          38.000                  
  23733105.253   124718317.288                          42.000                  
  23733113.866    97183141.524                          32.000                  
  20562297.340   108055610.778                          45.000                  
  20562305.327    84199217.050                          46.000                  
  23428570.374   123117975.041                          42.000                  
  23428577.308    95936122.369                          34.000                  
  21198244.056   111397535.072                          46.000                  
  21198255.492    86803327.613                          45.000                  
  23340248.958   122653839.934                          43.000                  
  23340261.663    95574481.400                          36.000                  
  23991190.232   126074555.158                          42.000                  
  23991199.846    98239955.361                          32.000                  
  20691568.750   108734954.051                          50.000                  
  20691576.826    84728581.706                          48.000                  
  20520966.308   107838408.892                          50.000                  
  20520977.565    84029977.128                          51.000                  
                 197601779.242                          44.000                  
                 197601779.242                          44.000    37947344.037  
                 200179093.502                          41.000                  
                 200179093.502                          41.000    38442290.492  
                 195595329.012                          44.000                  
                 195595329.012                          44.000    37562026.343  
                 189815515.059                          47.000                  
                 189815515.059                          47.000    36452074.202  
                 189067411.516                          46.000                  
                 189067411.516                          46.000    36308408.150  
                 187308470.619                          47.000                  
                 187308470.619                          47.000    35970622.344  
                 195375517.979                          45.000                  
                 195375517.979                          45.000    37519813.367  
 17 12 19  9 17  7.0000000  0 16G10G12G14G22G25G26G29G31G32C 1C 2C 3
                                C 6C 7C 9C10
  23158801.074   121700311.570                          43.000                  
  23158813.171    94831455.241                          38.000                  
  23733753.166   124721721.997                          42.000                  
  23733761.779    97185794.523                          32.000                  
  20562136.805   108054766.637                          46.000                  
  20562144.667    84198559.274                          47.000                  
  23428205.739   123116059.586                          42.000                  
  23428212.797    95934629.790                          35.000                  
  21198559.140   111399190.019                          47.000                  
  21198570.344    86804617.169                          45.000                  
  23339566.040   122650251.755                          43.000                  
  23339578.727    95571685.423                          37.000                  
  23990715.649   126072060.741                          42.000                  
  23990725.352    98238011.670                          32.000                  
  20691391.703   108734023.379                          50.000                  
  20691399.726    84727856.504                          49.000                  
  20521082.438   107839018.524                          50.000                  
  20521093.535    84030452.154                          51.000                  
                 197601737.417                          44.000                  
                 197601737.417                          44.000    37947335.978  
                 200179128.070                          41.000                  
                 200179128.070                          41.000    38442296.692  
                 195595303.892                          44.000                  
                 195595303.892                          44.000    37562021.697  
                 189816025.614                          47.000                  
                 189816025.614                          47.000    36452172.571  
                 189067077.448                          46.000                  
                 189067077.448                          46.000    36308343.893  
                 187308425.575                          47.000                  
                 187308425.575                          47.000    35970613.963  
                 195374817.003                          45.000                  
                 195374817.003                          45.000    37519678.742  
 17 12 19  9 17  8.0000000  0 16G10G12G14G22G25G26G29G31G32C 1C 2C 3
                                C 6C 7C 9C10
  23159486.779   121703915.612                          43.000                  
  23159499.038    94834263.588                          39.000                  
  23734400.704   124725124.446                          43.000                  
  23734409.227    97188445.802                          33.000                  
  20561975.412   108053920.351                          46.000                  
  20561983.613    84197899.839                          47.000                  
  23427840.925   123114142.103                          42.000                  
  23427847.769    95933135.659                          35.000                  
  21198873.671   111400843.047                          46.000                  
  21198884.946    86805905.253                          45.000                  
  23338882.853   122646661.279                          43.000                  
  23338895.415    95568887.645                          37.000                  
  23990240.351   126069564.072                          42.000                  
  23990250.250    98236066.219                          32.000                  
  20691214.121   108733090.547                          50.000                  
  20691222.198    84727129.627                          49.000                  
  20521198.069   107839626.098                          50.000                  
  20521209.183    84030925.600                          51.000                  
                 197601693.082                          44.000                  
                 197601693.082                          44.000    37947327.204  
                 200179160.145                          42.000                  
                 200179160.145                          42.000    38442303.089  
                 195595276.277                          44.000                  
                 195595276.277                          44.000    37562016.443  
                 189816533.785                          47.000                  
                 189816533.785                          47.000    36452269.814  
                 189066740.957                          46.000                  
                 189066740.957                          46.000    36308279.225  
                 187308378.143                          47.000                  
                 187308378.143                          47.000    35970604.796  
                 195374113.613                          45.000                  
                 195374113.613                          45.000    37519543.831  
 17 12 19  9 17  9.0000000  0 16G10G12G14G22G25G26G29G31G32C 1C 2C 3
                                C 6C 7C 9C10
  23160172.914   121707520.559                          43.000                  
  23160184.940    94837072.642                          39.000                  
  23735048.617   124728527.963                          42.000                  
  23735056.908    97191097.905                          33.000                  
  20561814.698   108053075.171                          46.000                  
  20561822.721    84197241.241                          47.000                  
  23427476.236   123112225.876                          42.000                  
  23427483.223    95931642.490                          35.000                  
  21199188.577   111402497.436                          46.000                  
  21199199.727    86807194.374                          45.000                  
  23338199.631   122643071.759                          43.000                  
  23338212.390    95566090.619                          37.000                  
  23989765.696   126067068.417                          42.000                  
  23989775.363    98234121.533                          32.000                  
  20691036.860   108732158.824                          50.000                  
  20691044.901    84726403.600                          49.000                  
  20521313.896   107840234.885                          50.000                  
  20521325.046    84031399.973                          51.000                  
                 197601649.503                          44.000                  
                 197601649.503                          44.000    37947318.752  
                 200179192.962                          41.000                  
                 200179192.962                          41.000    38442309.343  
                 195595249.417                          44.000                  
                 195595249.417                          44.000    37562010.958  
                 189817042.831                          47.000                  
                 189817042.831                          47.000    36452367.593  
                 189066405.319                          46.000                  
                 189066405.319                          46.000    36308215.058  
                 187308331.572                          47.000                  
                 187308331.572                          47.000    35970595.719  
                 195373411.075                          45.000                  
                 195373411.075                          45.000    37519409.188  
 17 12 19  9 17 10.0000000  0 16G10G12G14G22G25G26G29G31G32C 1C 2C 3
                                C 6C 7C 9C10
  23160858.459   121711123.964                          43.000                  
  23160870.574    94839880.502                          39.000                  
  23735695.725   124731930.030                          42.000                  
  23735704.320    97193748.860                          32.000                  
  20561653.733   108052228.618                          45.000                  
  20561661.685    84196581.608                          47.000                  
  23427111.583   123110308.396                          42.000                  
  23427118.355    95930148.359                          35.000                  
  21199503.161   111404150.710                          47.000                  
  21199514.365    86808482.653                          45.000                  
  23337516.141   122639480.751                          42.000                  
  23337529.025    95563292.431                          37.000                  
  23989290.112   126064571.301                          42.000                  
  23989299.993    98232175.767                          33.000                  
  20690859.135   108731225.720                          50.000                  
  20690867.337    84725676.515                          49.000                  
  20521429.419   107840842.407                          50.000                  
  20521440.659    84031873.375                          51.000                  
                 197601604.206                          44.000                  
                 197601604.206                          44.000    37947310.032  
                 200179224.073                          42.000                  
                 200179224.073                          42.000    38442315.401  
                 195595220.843                          44.000                  
                 195595220.843                          44.000    37562005.490  
                 189817550.304                          47.000                  
                 189817550.304                          47.000    36452464.944  
                 189066068.052                          46.000                  
                 189066068.052                          46.000    36308150.265  
                 187308283.391                          46.000                  
                 187308283.391                          46.000    35970586.141  
                 195372706.906                          45.000                  
                 195372706.906                          45.000    37519273.580  
 17 12 19  9 17 11.0000000  0 16G10G12G14G22G25G26G29G31G32C 1C 2C 3
                                C 6C 7C 9C10
  23161545.094   121714729.471                          43.000                  
  23161556.566    94842689.965                          39.000                  
  23736343.853   124735334.272                          42.000                  
  23736352.108    97196401.516                          32.000                  
  20561492.894   108051384.333                          46.000                  
  20561500.971    84195923.717                          47.000                  
  23426747.037   123108393.302                          42.000                  
  23426753.899    95928656.059                          35.000                  
  21199818.353   111405806.493                          47.000                  
  21199829.413    86809772.863                          45.000                  
  23336833.312   122635891.882                          43.000                  
  23336846.106    95560495.903                          37.000                  
  23988815.368   126062076.354                          42.000                  
  23988825.178    98230231.637                          33.000                  
  20690682.178   108730294.880                          50.000                  
  20690690.219    84724951.181                          49.000                  
  20521545.550   107841452.291                          50.000                  
  20521556.700    84032348.598                          52.000                  
                 197601560.779                          44.000                  
                 197601560.779                          44.000    37947301.687  
                 200179257.055                          41.000                  
                 200179257.055                          41.000    38442321.691  
                 195595194.158                          44.000                  
                 195595194.158                          44.000    37562000.772  
                 189818059.775                          47.000                  
                 189818059.775                          47.000    36452562.794  
                 189065732.792                          46.000                  
                 189065732.792                          46.000    36308085.758  
                 187308237.206                          47.000                  
                 187308237.206                          47.000    35970577.421  
                 195372004.734                          45.000                  
                 195372004.734                          45.000    37519138.615  
 17 12 19  9 17 12.0000000  0 16G10G12G14G22G25G26G29G31G32C 1C 2C 3
                                C 6C 7C 9C10
  23162230.907   121718334.808                          43.000                  
  23162242.647    94845499.327                          38.000                  
  23736991.462   124738738.470                          42.000                  
  23736999.753    97199054.158                          33.000                  
  20561332.305   108050540.066                          45.000                  
  20561340.329    84195265.851                          46.000                  
  23426382.866   123106478.392                          41.000                  
  23426389.639    95927163.929                          35.000                  
  21200133.401   111407462.555                          46.000                  
  21200144.569    86811063.310                          45.000                  
  23336150.322   122632302.879                          42.000                  
  23336163.063    95557699.290                          37.000                  
  23988340.320   126059581.330                          42.000                  
  23988350.559    98228287.465                          32.000                  
  20690504.971   108729364.050                          50.000                  
  20690513.083    84724225.863                          49.000                  
  20521661.627   107842062.301                          50.000                  
  20521672.777    84032823.940                          51.000                  
                 197601517.049                          44.000                  
                 197601517.049                          44.000    37947293.396  
                 200179289.733                          42.000                  
                 200179289.733                          42.000    38442327.838  
                 195595167.128                          44.000                  
                 195595167.128                          44.000    37561995.644  
                 189818569.048                          47.000                  
                 189818569.048                          47.000    36452660.627  
                 189065397.279                          46.000                  
                 189065397.279                          46.000    36308021.250  
                 187308190.790                          47.000                  
                 187308190.790                          47.000    35970568.772  
                 195371302.318                          45.000                  
                 195371302.318                          45.000    37519003.686  
 17 12 19  9 17 13.0000000  0 16G10G12G14G22G25G26G29G31G32C 1C 2C 3
                                C 6C 7C 9C10
  23162916.309   121721938.663                          43.000                  
  23162928.425    94848307.533                          38.000                  
  23737639.303   124742141.277                          43.000                  
  23737647.041    97201705.691                          32.000                  
  20561171.502   108049694.481                          45.000                  
  20561179.400    84194606.951                          46.000                  
  23426018.374   123104562.276                          42.000                  
  23426024.843    95925670.840                          34.000                  
  21200448.396   111409117.540                          47.000                  
  21200459.493    86812352.913                          45.000                  
  23335467.011   122628712.434                          42.000                  
  23335479.894    95554901.542                          37.000                  
  23987865.593   126057084.887                          42.000                  
  23987875.439    98226342.188                          31.000                  
  20690327.531   108728431.905                          50.000                  
  20690335.644    84723499.514                          48.000                  
  20521777.401   107842671.108                          50.000                  
  20521788.640    84033298.331                          51.000                  
                 197601471.647                          44.000                  
                 197601471.647                          44.000    37947285.123  
                 200179320.727                          42.000                  
                 200179320.727                          42.000    38442333.985  
                 195595138.466                          44.000                  
                 195595138.466                          44.000    37561990.015  
                 189819076.797                          47.000                  
                 189819076.797                          47.000    36452757.942  
                 189065060.222                          46.000                  
                 189065060.222                          46.000    36307956.368  
                 187308142.835                          46.000                  
                 187308142.835                          46.000    35970559.445  
                 195370598.338                          45.000                  
                 195370598.338                          45.000    37518868.578  
 17 12 19  9 17 14.0000000  0 16G10G12G14G22G25G26G29G31G32C 1C 2C 3
                                C 6C 7C 9C10
  23163602.498   121725544.108                          42.000                  
  23163614.506    94851116.968                          38.000                  
  23738286.984   124745545.795                          43.000                  
  23738294.900    97204358.551                          32.000                  
  20561010.931   108048850.683                          45.000                  
  20561018.829    84193949.444                          47.000                  
  23425653.828   123102648.112                          42.000                  
  23425660.529    95924179.298                          35.000                  
  21200763.695   111410774.561                          47.000                  
  21200774.774    86813644.096                          45.000                  
  23334784.200   122625123.625                          43.000                  
  23334797.012    95552105.053                          36.000                  
  23987390.831   126054590.148                          42.000                  
  23987400.749    98224398.218                          32.000                  
  20690150.521   108727501.538                          50.000                  
  20690158.598    84722774.557                          49.000                  
  20521893.656   107843281.796                          50.000                  
  20521904.807    84033774.194                          51.000                  
                 197601427.658                          44.000                  
                 197601427.658                          44.000    37947276.831  
                 200179353.157                          41.000                  
                 200179353.157                          41.000    38442340.507  
                 195595111.182                          45.000                  
                 195595111.182                          45.000    37561984.851  
                 189819586.076                          47.000                  
                 189819586.076                          47.000    36452855.703  
                 189064724.647                          46.000                  
                 189064724.647                          46.000    36307891.843  
                 187308096.389                          47.000                  
                 187308096.389                          47.000    35970550.635  
                 195369895.884                          44.000                  
                 195369895.884                          44.000    37518733.542  
 17 12 19  9 17 15.0000000  0 16G10G12G14G22G25G26G29G31G32C 1C 2C 3
                                C 6C 7C 9C10
  23164288.686   121729149.222                          43.000                  
  23164300.533    94853926.136                          38.000                  
  23738934.933   124748950.072                          43.000                  
  23738942.706    97207011.237                          33.000                  
  20560850.289   108048006.724                          46.000                  
  20560858.222    84193291.825                          47.000                  
  23425289.282   123100733.886                          42.000                  
  23425296.305    95922687.693                          36.000                  
  21201078.941   111412431.676                          47.000                  
  21201090.127    86814935.357                          45.000                  
  23334101.139   122621534.556                          42.000                  
  23334114.040    95549308.395                          37.000                  
  23986916.230   126052095.139                          42.000                  
  23986925.665    98222454.075                          31.000                  
  20689973.439   108726570.998                          50.000                  
  20689981.498    84722049.466                          49.000                  
  20522009.894   107843892.428                          50.000                  
  20522021.009    84034250.011                          51.000                  
                 197601383.160                          44.000                  
                 197601383.160                          44.000    37947268.004  
                 200179385.050                          41.000                  
                 200179385.050                          41.000    38442346.189  
                 195595083.404                          44.000                  
                 195595083.404                          44.000    37561979.437  
                 189820094.965                          47.000                  
                 189820094.965                          47.000    36452953.679  
                 189064388.681                          46.000                  
                 189064388.681                          46.000    36307827.300  
                 187308049.516                          46.000                  
                 187308049.516                          46.000    35970541.379  
                 195369192.986                          45.000                  
                 195369192.986                          45.000    37518598.774  
 17 12 19  9 17 16.0000000  0 16G10G12G14G22G25G26G29G31G32C 1C 2C 3
                                C 6C 7C 9C10
  23164975.071   121732755.160                          43.000                  
  23164986.650    94856735.958                          38.000                  
  23739582.792   124752355.291                          42.000                  
  23739590.672    97209664.649                          33.000                  
  20560689.825   108047163.777                          46.000                  
  20560697.848    84192634.977                          47.000                  
  23424925.808   123098820.829                          42.000                  
  23424932.313    95921197.006                          36.000                  
  21201394.508   111414090.045                          47.000                  
  21201405.694    86816227.578                          45.000                  
  23333418.327   122617946.322                          42.000                  
  23333431.104    95546512.347                          37.000                  
  23986441.790   126049601.054                          42.000                  
  23986451.064    98220510.631                          32.000                  
  20689796.643   108725641.476                          50.000                  
  20689804.594    84721325.158                          49.000                  
  20522126.293   107844504.173                          50.000                  
  20522137.408    84034726.688                          51.000                  
                 197601339.317                          44.000                  
                 197601339.317                          44.000    37947259.659  
                 200179417.591                          41.000                  
                 200179417.591                          41.000    38442352.622  
                 195595056.263                          45.000                  
                 195595056.263                          45.000    37561973.826  
                 189820604.622                          47.000                  
                 189820604.622                          47.000    36453051.584  
                 189064053.429                          46.000                  
                 189064053.429                          46.000    36307763.061  
                 187308003.419                          47.000                  
                 187308003.419                          47.000    35970532.570  
                 195368490.823                          45.000                  
                 195368490.823                          45.000    37518464.077  
 17 12 19  9 17 17.0000000  0 16G10G12G14G22G25G26G29G31G32C 1C 2C 3
                                C 6C 7C 9C10
  23165660.974   121736360.338                          43.000                  
  23165672.678    94859545.202                          38.000                  
  23740230.526   124755759.835                          42.000                  
  23740238.424    97212317.559                          32.000                  
  20560529.325   108046320.223                          45.000                  
  20560537.313    84191977.669                          47.000                  
  23424561.280   123096907.298                          42.000                  
  23424568.106    95919705.932                          35.000                  
  21201710.110   111415748.055                          47.000                  
  21201721.261    86817519.555                          45.000                  
  23332735.177   122614357.386                          42.000                  
  23332748.203    95543715.787                          36.000                  
  23985966.742   126047106.280                          42.000                  
  23985976.498    98218566.660                          32.000                  
  20689619.596   108724711.344                          50.000                  
  20689627.620    84720600.387                          49.000                  
  20522242.513   107845115.427                          50.000                  
  20522253.735    84035202.999                          51.000                  
                 197601294.505                          44.000                  
                 197601294.505                          44.000    37947250.850  
                 200179449.198                          41.000                  
                 200179449.198                          41.000    38442358.519  
                 195595028.191                          44.000                  
                 195595028.191                          44.000    37561968.340  
                 189821113.482                          47.000                  
                 189821113.482                          47.000    36453149.345  
                 189063717.340                          46.000                  
                 189063717.340                          46.000    36307698.715  
                 187307956.487                          47.000                  
                 187307956.487                          47.000    35970523.653  
                 195367787.866                          45.000                  
                 195367787.866                          45.000    37518328.987  
 17 12 19  9 17 18.0000000  0 16G10G12G14G22G25G26G29G31G32C 1C 2C 3
                                C 6C 7C 9C10
  23166347.591   121739967.157                          43.000                  
  23166359.116    94862355.682                          38.000                  
  23740878.510   124759166.119                          42.000                  
  23740886.444    97214971.791                          32.000                  
  20560369.290   108045478.503                          45.000                  
  20560377.117    84191321.774                          47.000                  
  23424197.842   123094995.734                          42.000                  
  23424204.525    95918216.415                          35.000                  
  21202025.927   111417408.143                          47.000                  
  21202037.149    86818813.116                          45.000                  
  23332052.634   122610770.110                          42.000                  
  23332065.696    95540920.499                          37.000                  
  23985492.516   126044613.217                          42.000                  
  23985502.147    98216624.006                          32.000                  
  20689442.979   108723783.014                          50.000                  
  20689450.949    84719877.006                          49.000                  
  20522359.234   107845728.598                          50.000                  
  20522370.402    84035680.786                          51.000                  
                 197601251.165                          44.000                  
                 197601251.165                          44.000    37947242.487  
                 200179482.233                          41.000                  
                 200179482.233                          41.000    38442365.059  
                 195595001.542                          45.000                  
                 195595001.542                          45.000    37561963.337  
                 189821623.898                          47.000                  
                 189821623.898                          47.000    36453247.267  
                 189063382.781                          46.000                  
                 189063382.781                          46.000    36307634.565  
                 187307911.100                          47.000                  
                 187307911.100                          47.000    35970514.772  
                 195367086.413                          45.000                  
                 195367086.413                          45.000    37518194.005  
 17 12 19  9 17 19.0000000  0 16G10G12G14G22G25G26G29G31G32C 1C 2C 3
                                C 6C 7C 9C10
  23167033.583   121743573.036                          42.000                  
  23167045.322    94865165.468                          39.000                  
  23741526.888   124762571.602                          42.000                  
  23741534.500    97217625.437                          33.000                  
  20560208.737   108044636.044                          45.000                  
  20560216.814    84190665.321                          47.000                  
  23423834.172   123093083.550                          41.000                  
  23423840.801    95916726.395                          36.000                  
  21202341.870   111419067.741                          47.000                  
  21202352.984    86820106.309                          45.000                  
  23331369.715   122607181.964                          42.000                  
  23331382.831    95538124.538                          37.000                  
  23985017.771   126042119.338                          41.000                  
  23985027.796    98214680.710                          31.000                  
  20689266.183   108722853.947                          50.000                  
  20689274.188    84719153.060                          49.000                  
  20522475.758   107846341.140                          50.000                  
  20522486.979    84036158.096                          51.000                  
                 197601206.746                          44.000                  
                 197601206.746                          44.000    37947233.946  
                 200179514.198                          41.000                  
                 200179514.198                          41.000    38442371.188  
                 195594973.828                          44.000                  
                 195594973.828                          44.000    37561957.851  
                 189822133.348                          47.000                  
                 189822133.348                          47.000    36453344.921  
                 189063047.253                          46.000                  
                 189063047.253                          46.000    36307570.165  
                 187307864.732                          46.000                  
                 187307864.732                          46.000    35970506.052  
                 195366383.974                          44.000                  
                 195366383.974                          44.000    37518059.165  
 17 12 19  9 17 20.0000000  0 16G10G12G14G22G25G26G29G31G32C 1C 2C 3
                                C 6C 7C 9C10
  23167719.682   121747179.101                          43.000                  
  23167731.564    94867975.386                          38.000                  
  23742174.729   124765977.335                          42.000                  
  23742182.413    97220279.264                          33.000                  
  20560048.363   108043793.921                          46.000                  
  20560056.618    84190009.119                          47.000                  
  23423470.091   123091171.851                          42.000                  
  23423477.024    95915236.757                          36.000                  
  21202657.597   111420727.908                          47.000                  
  21202668.908    86821399.953                          46.000                  
  23330687.333   122603594.031                          42.000                  
  23330700.110    95535328.760                          37.000                  
  23984543.045   126039625.687                          41.000                  
  23984553.177    98212737.597                          32.000                  
  20689089.387   108721925.214                          50.000                  
  20689097.428    84718429.375                          49.000                  
  20522592.496   107846954.111                          50.000                  
  20522603.611    84036635.736                          52.000                  
                 197601162.292                          44.000                  
                 197601162.292                          44.000    37947225.476  
                 200179546.134                          42.000                  
                 200179546.134                          42.000    38442377.210  
                 195594946.093                          44.000                  
                 195594946.093                          44.000    37561952.633  
                 189822642.912                          47.000                  
                 189822642.912                          47.000    36453442.897  
                 189062711.798                          46.000                  
                 189062711.798                          46.000    36307505.550  
                 187307818.455                          47.000                  
                 187307818.455                          47.000    35970497.243  
                 195365681.593                          44.000                  
                 195365681.593                          44.000    37517924.468  
 17 12 19  9 17 21.0000000  0 16G10G12G14G22G25G26G29G31G32C 1C 2C 3
                                C 6C 7C 9C10
  23168405.941   121750784.713                          43.000                  
  23168417.610    94870784.970                          39.000                  
  23742822.892   124769382.756                          42.000                  
  23742830.433    97222932.811                          33.000                  
  20559888.149   108042951.544                          45.000                  
  20559896.315    84189352.726                          47.000                  
  23423106.045   123089260.020                          41.000                  
  23423113.336    95913747.011                          36.000                  
  21202973.557   111422388.087                          47.000                  
  21202984.833    86822693.599                          45.000                  
  23330004.629   122600005.691                          43.000                  
  23330017.370    95532532.653                          37.000                  
  23984068.783   126037131.685                          41.000                  
  23984078.558    98210794.232                          32.000                  
  20688912.662   108720996.218                          50.000                  
  20688920.650    84717705.481                          49.000                  
  20522709.127   107847566.936                          50.000                  
  20522720.242    84037113.261                          51.000                  
                 197601117.239                          44.000                  
                 197601117.239                          44.000    37947216.952  
                 200179577.469                          42.000                  
                 200179577.469                          42.000    38442383.286  
                 195594917.751                          45.000                  
                 195594917.751                          45.000    37561946.808  
                 189823151.996                          47.000                  
                 189823151.996                          47.000    36453540.516  
                 189062375.802                          46.000                  
                 189062375.802                          46.000    36307440.990  
                 187307771.681                          47.000                  
                 187307771.681                          47.000    35970488.165  
                 195364978.714                          45.000                  
                 195364978.714                          45.000    37517789.700  
 17 12 19  9 17 22.0000000  0 16G10G12G14G22G25G26G29G31G32C 1C 2C 3
                                C 6C 7C 9C10
  23169092.434   121754392.104                          43.000                  
  23169104.013    94873595.903                          38.000                  
  23743471.234   124772790.059                          42.000                  
  23743478.721    97225587.875                          32.000                  
  20559728.328   108042111.127                          45.000                  
  20559736.369    84188697.851                          47.000                  
  23422742.446   123087350.301                          42.000                  
  23422749.808    95912258.921                          35.000                  
  21203289.875   111424050.469                          47.000                  
  21203301.132    86823988.964                          45.000                  
  23329322.015   122596419.182                          42.000                  
  23329334.720    95529737.982                          36.000                  
  23983594.236   126034639.543                          41.000                  
  23983604.171    98208852.319                          31.000                  
  20688736.277   108720069.170                          50.000                  
  20688744.211    84716983.111                          49.000                  
  20522826.276   107848181.820                          50.000                  
  20522837.230    84037592.390                          51.000                  
                 197601073.773                          44.000                  
                 197601073.773                          44.000    37947208.554  
                 200179610.373                          42.000                  
                 200179610.373                          42.000    38442389.700  
                 195594890.982                          44.000                  
                 195594890.982                          44.000    37561942.001  
                 189823662.804                          47.000                  
                 189823662.804                          47.000    36453638.849  
                 189062041.510                          46.000                  
                 189062041.510                          46.000    36307376.679  
                 187307726.605                          47.000                  
                 187307726.605                          47.000    35970479.713  
                 195364277.537                          45.000                  
                 195364277.537                          45.000    37517654.950  
 17 12 19  9 17 23.0000000  0 16G10G12G14G22G25G26G29G31G32C 1C 2C 3
                                C 6C 7C 9C10
  23169778.425   121757998.480                          43.000                  
  23169790.344    94876406.066                          38.000                  
  23744119.594   124776196.408                          42.000                  
  23744127.045    97228242.171                          32.000                  
  20559568.454   108041269.858                          45.000                  
  20559576.281    84188042.319                          46.000                  
  23422379.365   123085439.823                          41.000                  
  23422386.174    95910770.246                          35.000                  
  21203606.014   111425712.250                          46.000                  
  21203617.325    86825283.863                          45.000                  
  23328639.311   122592831.695                          42.000                  
  23328652.051    95526942.531                          36.000                  
  23983119.813   126032146.468                          41.000                  
  23983129.784    98206909.661                          31.000                  
  20688559.624   108719141.262                          50.000                  
  20688567.665    84716260.070                          48.000                  
  20522942.997   107848795.959                          50.000                  
  20522954.076    84038070.946                          51.000                  
                 197601029.119                          44.000                  
                 197601029.119                          44.000    37947200.102  
                 200179642.091                          42.000                  
                 200179642.091                          42.000    38442395.615  
                 195594863.015                          45.000                  
                 195594863.015                          45.000    37561936.640  
                 189824172.525                          47.000                  
                 189824172.525                          47.000    36453736.861  
                 189061706.098                          46.000                  
                 189061706.098                          46.000    36307312.208  
                 187307680.420                          46.000                  
                 187307680.420                          46.000    35970470.886  
                 195363575.249                          45.000                  
                 195363575.249                          45.000    37517519.967  
 17 12 19  9 17 24.0000000  0 16G10G12G14G22G25G26G29G31G32C 1C 2C 3
                                C 6C 7C 9C10
  23170464.703   121761605.601                          43.000                  
  23170476.854    94879216.814                          38.000                  
  23744767.864   124779603.649                          42.000                  
  23744775.387    97230897.143                          33.000                  
  20559408.598   108040429.532                          45.000                  
  20559416.371    84187387.517                          47.000                  
  23422015.695   123083530.468                          42.000                  
  23422022.753    95909282.428                          35.000                  
  21203922.420   111427375.211                          47.000                  
  21203933.731    86826579.665                          45.000                  
  23327956.857   122589245.007                          43.000                  
  23327969.473    95524147.707                          36.000                  
  23982645.444   126029654.212                          42.000                  
  23982655.540    98204967.643                          32.000                  
  20688383.275   108718214.287                          50.000                  
  20688391.244    84715537.743                          49.000                  
  20523060.057   107849411.134                          50.000                  
  20523071.136    84038550.299                          51.000                  
                 197600985.011                          44.000                  
                 197600985.011                          44.000    37947191.346  
                 200179674.385                          42.000                  
                 200179674.385                          42.000    38442401.530  
                 195594835.630                          44.000                  
                 195594835.630                          44.000    37561931.566  
                 189824682.955                          47.000                  
                 189824682.955                          47.000    36453834.622  
                 189061371.367                          46.000                  
                 189061371.367                          46.000    36307247.772  
                 187307634.931                          47.000                  
                 187307634.931                          47.000    35970462.112  
                 195362873.625                          45.000                  
                 195362873.625                          45.000    37517385.181  
 17 12 19  9 17 25.0000000  0 16G10G12G14G22G25G26G29G31G32C 1C 2C 3
                                C 6C 7C 9C10
  23171151.445   121765213.188                          42.000                  
  23171163.382    94882027.930                          39.000                  
  23745416.117   124783011.453                          42.000                  
  23745424.086    97233552.593                          33.000                  
  20559248.974   108039589.846                          45.000                  
  20559256.568    84186733.221                          47.000                  
  23421652.543   123081621.865                          42.000                  
  23421659.548    95907795.220                          36.000                  
  21204239.185   111429039.067                          46.000                  
  21204250.388    86827876.174                          45.000                  
  23327274.403   122585658.835                          42.000                  
  23327287.037    95521353.287                          37.000                  
  23982171.647   126027162.536                          42.000                  
  23982181.439    98203026.076                          32.000                  
  20688206.872   108717287.955                          50.000                  
  20688214.984    84714815.933                          49.000                  
  20523177.349   107850027.063                          50.000                  
  20523188.339    84039030.241                          51.000                  
                 197600941.194                          44.000                  
                 197600941.194                          44.000    37947183.126  
                 200179706.940                          42.000                  
                 200179706.940                          42.000    38442407.981  
                 195594808.535                          45.000                  
                 195594808.535                          45.000    37561926.008  
                 189825193.786                          47.000                  
                 189825193.786                          47.000    36453932.741  
                 189061037.020                          46.000                  
                 189061037.020                          46.000    36307183.479  
                 187307589.823                          47.000                  
                 187307589.823                          47.000    35970453.320  
                 195362172.383                          45.000                  
                 195362172.383                          45.000    37517250.913  
 17 12 19  9 17 26.0000000  0 16G10G12G14G22G25G26G29G31G32C 1C 2C 3
                                C 6C 7C 9C10
  23171838.116   121768820.585                          43.000                  
  23171849.910    94884838.893                          39.000                  
  23746064.333   124786419.163                          42.000                  
  23746072.499    97236207.943                          33.000                  
  20559088.796   108038750.168                          45.000                  
  20559096.801    84186078.931                          47.000                  
  23421289.301   123079713.391                          42.000                  
  23421296.360    95906308.086                          36.000                  
  21204555.841   111430703.169                          46.000                  
  21204567.081    86829172.888                          45.000                  
  23326591.717   122582072.528                          42.000                  
  23326604.476    95518558.776                          37.000                  
  23981697.475   126024670.746                          41.000                  
  23981707.374    98201084.424                          32.000                  
  20688030.594   108716361.612                          50.000                  
  20688038.760    84714094.109                          49.000                  
  20523294.552   107850643.092                          50.000                  
  20523305.595    84039510.268                          52.000                  
                 197600897.042                          44.000                  
                 197600897.042                          44.000    37947174.513  
                 200179739.161                          41.000                  
                 200179739.161                          41.000    38442414.270  
                 195594781.069                          45.000                  
                 195594781.069                          45.000    37561921.005  
                 189825704.394                          47.000                  
                 189825704.394                          47.000    36454030.824  
                 189060702.403                          46.000                  
                 189060702.403                          46.000    36307119.508  
                 187307544.473                          47.000                  
                 187307544.473                          47.000    35970444.279  
                 195361470.866                          45.000                  
                 195361470.866                          45.000    37517116.199  
 17 12 19  9 17 27.0000000  0 16G10G12G14G22G25G26G29G31G32C 1C 2C 3
                                C 6C 7C 9C10
  23172524.447   121772428.263                          43.000                  
  23172536.420    94887650.067                          38.000                  
  23746713.157   124789827.252                          42.000                  
  23746721.038    97238863.594                          33.000                  
  20558929.101   108037910.939                          45.000                  
  20558937.088    84185424.980                          47.000                  
  23420926.310   123077805.494                          42.000                  
  23420933.315    95904821.409                          36.000                  
  21204872.552   111432367.958                          46.000                  
  21204883.810    86830470.120                          45.000                  
  23325909.264   122578486.500                          42.000                  
  23325922.040    95515764.464                          37.000                  
  23981223.463   126022179.306                          42.000                  
  23981233.237    98199143.050                          32.000                  
  20687854.459   108715435.705                          50.000                  
  20687862.535    84713372.621                          49.000                  
  20523411.844   107851259.655                          50.000                  
  20523422.923    84039990.707                          51.000                  
                 197600852.960                          44.000                  
                 197600852.960                          44.000    37947166.115  
                 200179771.501                          42.000                  
                 200179771.501                          42.000    38442420.364  
                 195594753.686                          45.000                  
                 195594753.686                          45.000    37561916.091  
                 189826215.202                          47.000                  
                 189826215.202                          47.000    36454128.943  
                 189060367.962                          46.000                  
                 189060367.962                          46.000    36307055.465  
                 187307499.292                          47.000                  
                 187307499.292                          47.000    35970435.594  
                 195360769.561                          44.000                  
                 195360769.561                          44.000    37516981.145  
 17 12 19  9 17 28.0000000  0 16G10G12G14G22G25G26G29G31G32C 1C 2C 3
                                C 6C 7C 9C10
  23173210.957   121776035.536                          43.000                  
  23173222.822    94890460.925                          38.000                  
  23747361.803   124793235.033                          43.000                  
  23747369.719    97241518.994                          34.000                  
  20558769.405   108037071.487                          46.000                  
  20558777.375    84184770.868                          47.000                  
  23420563.515   123075897.537                          42.000                  
  23420570.288    95903334.691                          35.000                  
  21205189.352   111434032.788                          46.000                  
  21205200.663    86831767.396                          45.000                  
  23325226.649   122574900.152                          42.000                  
  23325239.640    95512969.914                          37.000                  
  23980749.309   126019687.569                          42.000                  
  23980759.208    98197201.414                          31.000                  
  20687678.377   108714509.584                          50.000                  
  20687686.347    84712650.969                          49.000                  
  20523529.029   107851876.112                          50.000                  
  20523540.251    84040471.065                          52.000                  
                 197600808.308                          44.000                  
                 197600808.308                          44.000    37947157.663  
                 200179803.254                          41.000                  
                 200179803.254                          41.000    38442426.278  
                 195594725.734                          44.000                  
                 195594725.734                          44.000    37561910.391  
                 189826725.574                          47.000                  
                 189826725.574                          47.000    36454227.079  
                 189060033.051                          46.000                  
                 189060033.051                          46.000    36306991.351  
                 187307453.658                          47.000                  
                 187307453.658                          47.000    35970426.696  
                 195360067.794                          44.000                  
                 195360067.794                          44.000    37516846.430  
 17 12 19  9 17 29.0000000  0 16G10G12G14G22G25G26G29G31G32C 1C 2C 3
                                C 6C 7C 9C10
  23173897.628   121779642.692                          43.000                  
  23173909.368    94893271.682                          39.000                  
  23748010.288   124796642.793                          43.000                  
  23748018.257    97244174.412                          33.000                  
  20558609.549   108036232.083                          46.000                  
  20558617.608    84184116.789                          47.000                  
  23420200.470   123073989.761                          42.000                  
  23420207.082    95901848.124                          36.000                  
  21205506.313   111435697.911                          46.000                  
  21205517.606    86833064.898                          45.000                  
  23324544.195   122571313.717                          42.000                  
  23324557.222    95510175.282                          37.000                  
  23980275.261   126017195.770                          42.000                  
  23980284.875    98195259.790                          32.000                  
  20687502.028   108713583.493                          50.000                  
  20687510.158    84711929.348                          49.000                  
  20523646.393   107852492.730                          50.000                  
  20523657.615    84040951.550                          52.000                  
                 197600763.360                          44.000                  
                 197600763.360                          44.000    37947148.979  
                 200179834.664                          42.000                  
                 200179834.664                          42.000    38442431.836  
                 195594697.479                          44.000                  
                 195594697.479                          44.000    37561904.816  
                 189827235.772                          47.000                  
                 189827235.772                          47.000    36454324.680  
                 189059697.913                          46.000                  
                 189059697.913                          46.000    36306926.934  
                 187307407.823                          46.000                  
                 187307407.823                          46.000    35970418.172  
                 195359365.747                          45.000                  
                 195359365.747                          45.000    37516711.751  
 17 12 19  9 17 30.0000000  0 16G10G12G14G22G25G26G29G31G32C 1C 2C 3
                                C 6C 7C 9C10
  23174583.709   121783250.726                          42.000                  
  23174595.985    94896083.157                          39.000                  
  23748658.898   124800051.554                          43.000                  
  23748666.974    97246830.569                          33.000                  
  20558449.925   108035393.746                          45.000                  
  20558458.055    84183463.533                          47.000                  
  23419837.890   123072083.167                          42.000                  
  23419844.234    95900362.460                          36.000                  
  21205823.524   111437364.344                          46.000                  
  21205834.656    86834363.412                          45.000                  
  23323862.224   122567728.202                          42.000                  
  23323874.911    95507381.374                          37.000                  
  23979801.125   126014704.934                          42.000                  
  23979811.078    98193318.865                          32.000                  
  20687326.143   108712658.464                          50.000                  
  20687334.095    84711208.542                          49.000                  
  20523763.989   107853110.508                          50.000                  
  20523775.175    84041432.928                          51.000                  
                 197600719.101                          44.000                  
                 197600719.101                          44.000    37947140.669  
                 200179866.780                          41.000                  
                 200179866.780                          41.000    38442438.429  
                 195594669.928                          44.000                  
                 195594669.928                          44.000    37561899.651  
                 189827746.792                          47.000                  
                 189827746.792                          47.000    36454422.870  
                 189059363.598                          46.000                  
                 189059363.598                          46.000    36306862.677  
                 187307362.793                          47.000                  
                 187307362.793                          47.000    35970409.684  
                 195358664.541                          44.000                  
                 195358664.541                          44.000    37516576.965  
 17 12 19  9 17 31.0000000  0 16G10G12G14G22G25G26G29G31G32C 1C 2C 3
                                C 6C 7C 9C10
  23175270.523   121786859.514                          42.000                  
  23175282.674    94898895.192                          39.000                  
  23749307.883   124803461.178                          43.000                  
  23749315.906    97249487.432                          34.000                  
  20558290.623   108034556.363                          45.000                  
  20558298.753    84182811.038                          47.000                  
  23419475.328   123070177.666                          42.000                  
  23419481.796    95898877.663                          36.000                  
  21206140.913   111439031.985                          46.000                  
  21206152.063    86835662.874                          45.000                  
  23323180.021   122564143.515                          42.000                  
  23323192.797    95504588.116                          37.000                  
  23979327.381   126012214.993                          42.000                  
  23979337.227    98191378.667                          33.000                  
  20687150.187   108711734.391                          50.000                  
  20687158.264    84710488.490                          49.000                  
  20523881.657   107853729.351                          50.000                  
  20523892.968    84041915.152                          52.000                  
                 197600675.461                          44.000                  
                 197600675.461                          44.000    37947132.146  
                 200179899.496                          41.000                  
                 200179899.496                          41.000    38442444.666  
                 195594642.976                          44.000                  
                 195594642.976                          44.000    37561894.541  
                 189828258.534                          47.000                  
                 189828258.534                          47.000    36454521.239  
                 189059029.960                          46.000                  
                 189059029.960                          46.000    36306798.366  
                 187307318.473                          47.000                  
                 187307318.473                          47.000    35970401.197  
                 195357964.021                          44.000                  
                 195357964.021                          44.000    37516442.626  
 17 12 19  9 17 32.0000000  0 16G10G12G14G22G25G26G29G31G32C 1C 2C 3
                                C 6C 7C 9C10
  23175957.212   121790467.749                          42.000                  
  23175969.345    94901706.814                          38.000                  
  23749956.814   124806870.323                          43.000                  
  23749964.873    97252143.900                          33.000                  
  20558131.141   108033718.578                          45.000                  
  20558139.326    84182158.211                          46.000                  
  23419112.318   123068271.903                          42.000                  
  23419119.234    95897392.639                          35.000                  
  21206458.124   111440699.470                          46.000                  
  21206469.346    86836962.212                          45.000                  
  23322497.460   122560558.291                          42.000                  
  23322510.558    95501794.447                          36.000                  
  23978853.137   126009724.524                          42.000                  
  23978863.197    98189438.009                          31.000                  
  20686974.177   108710809.899                          50.000                  
  20686982.325    84709768.102                          49.000                  
  20523999.467   107854347.886                          50.000                  
  20524010.617    84042397.123                          51.000                  
                 197600631.054                          44.000                  
                 197600631.054                          44.000    37947123.497  
                 200179931.435                          42.000                  
                 200179931.435                          42.000    38442451.063  
                 195594615.250                          44.000                  
                 195594615.250                          44.000    37561889.198  
                 189828769.650                          47.000                  
                 189828769.650                          47.000    36454619.376  
                 189058695.650                          46.000                  
                 189058695.650                          46.000    36306734.109  
                 187307273.501                          47.000                  
                 187307273.501                          47.000    35970392.405  
                 195357262.832                          45.000                  
                 195357262.832                          45.000    37516307.661  
 17 12 19  9 17 33.0000000  0 16G10G12G14G22G25G26G29G31G32C 1C 2C 3
                                C 6C 7C 9C10
  23176643.847   121794076.816                          42.000                  
  23176656.069    94904519.062                          38.000                  
  23750605.960   124810280.437                          43.000                  
  23750613.965    97254801.120                          33.000                  
  20557972.125   108032881.837                          46.000                  
  20557980.095    84181506.204                          46.000                  
  23418749.827   123066367.311                          42.000                  
  23418756.725    95895908.543                          35.000                  
  21206775.657   111442368.235                          46.000                  
  21206786.878    86838262.546                          45.000                  
  23321815.667   122556973.956                          42.000                  
  23321828.515    95499001.445                          37.000                  
  23978379.233   126007235.014                          41.000                  
  23978389.382    98187498.170                          31.000                  
  20686798.507   108709886.434                          50.000                  
  20686806.601    84709048.525                          48.000                  
  20524117.456   107854967.559                          50.000                  
  20524128.535    84042879.988                          51.000                  
                 197600587.306                          44.000                  
                 197600587.306                          44.000    37947115.224  
                 200179964.071                          41.000                  
                 200179964.071                          41.000    38442457.531  
                 195594588.213                          45.000                  
                 195594588.213                          45.000    37561884.052  
                 189829281.569                          47.000                  
                 189829281.569                          47.000    36454717.709  
                 189058362.103                          46.000                  
                 189058362.103                          46.000    36306670.048  
                 187307229.300                          47.000                  
                 187307229.300                          47.000    35970383.846  
                 195356562.425                          45.000                  
                 195356562.425                          45.000    37516173.108  
 17 12 19  9 17 34.0000000  0 16G10G12G14G22G25G26G29G31G32C 1C 2C 3
                                C 6C 7C 9C10
  23177330.285   121797684.113                          42.000                  
  23177342.454    94907329.950                          38.000                  
  23751254.677   124813688.872                          43.000                  
  23751262.664    97257457.067                          34.000                  
  20557812.358   108032043.498                          45.000                  
  20557820.578    84180852.963                          47.000                  
  23418387.211   123064461.249                          42.000                  
  23418394.109    95894423.314                          35.000                  
  21207093.082   111444035.645                          46.000                  
  21207104.196    86839561.840                          45.000                  
  23321133.195   122553387.896                          42.000                  
  23321146.079    95496207.130                          37.000                  
  23977905.132   126004743.802                          41.000                  
  23977915.460    98185556.955                          32.000                  
  20686622.497   108708961.364                          50.000                  
  20686630.591    84708327.694                          49.000                  
  20524235.195   107855585.750                          50.000                  
  20524246.203    84043361.697                          51.000                  
                 197600541.634                          44.000                  
                 197600541.634                          44.000    37947106.254  
                 200179994.760                          42.000                  
                 200179994.760                          42.000    38442463.517  
                 195594559.226                          44.000                  
                 195594559.226                          44.000    37561878.441  
                 189829791.671                          47.000                  
                 189829791.671                          47.000    36454815.739  
                 189058026.723                          46.000                  
                 189058026.723                          46.000    36306605.827  
                 187307183.279                          47.000                  
                 187307183.279                          47.000    35970375.340  
                 195355860.175                          45.000                  
                 195355860.175                          45.000    37516038.322  
 17 12 19  9 17 35.0000000  0 16G10G12G14G22G25G26G29G31G32C 1C 2C 3
                                C 6C 7C 9C10
  23178017.832   121801295.274                          42.000                  
  23178029.625    94910143.826                          39.000                  
  23751903.984   124817101.251                          43.000                  
  23751912.078    97260116.047                          34.000                  
  20557653.878   108031209.187                          46.000                  
  20557661.847    84180202.844                          47.000                  
  23418025.417   123062559.365                          42.000                  
  23418032.100    95892941.304                          36.000                  
  21207411.204   111445707.335                          47.000                  
  21207422.283    86840864.440                          45.000                  
  23320451.582   122549805.744                          42.000                  
  23320464.447    95493415.827                          36.000                  
  23977431.871   126002256.517                          42.000                  
  23977442.145    98183618.781                          32.000                  
  20686447.255   108708040.320                          50.000                  
  20686455.261    84707609.988                          49.000                  
  20524353.524   107856208.065                          50.000                  
  20524364.603    84043846.611                          51.000                  
                 197600499.602                          44.000                  
                 197600499.602                          44.000    37947098.320  
                 200180029.101                          42.000                  
                 200180029.101                          42.000    38442470.218  
                 195594533.888                          44.000                  
                 195594533.888                          44.000    37561873.616  
                 189830305.541                          47.000                  
                 189830305.541                          47.000    36454914.411  
                 189057695.089                          46.000                  
                 189057695.089                          46.000    36306542.035  
                 187307141.000                          47.000                  
                 187307141.000                          47.000    35970367.245  
                 195355161.662                          45.000                  
                 195355161.662                          45.000    37515904.322  
 17 12 19  9 17 36.0000000  0 16G10G12G14G22G25G26G29G31G32C 1C 2C 3
                                C 6C 7C 9C10
  23178703.556   121804899.948                          42.000                  
  23178715.528    94912952.671                          38.000                  
  23752552.290   124820507.292                          43.000                  
  23752560.313    97262770.130                          34.000                  
  20557493.950   108030368.603                          45.000                  
  20557501.920    84179547.848                          47.000                  
  23417662.247   123060651.328                          42.000                  
  23417669.073    95891454.529                          36.000                  
  21207728.111   111447373.005                          46.000                  
  21207739.244    86842162.373                          45.000                  
  23319768.431   122546217.155                          42.000                  
  23319781.618    95490619.531                          37.000                  
  23976957.573   125999762.887                          42.000                  
  23976967.580    98181675.729                          32.000                  
  20686270.691   108707112.987                          50.000                  
  20686278.875    84706887.402                          49.000                  
  20524470.691   107856824.208                          50.000                  
  20524481.877    84044326.729                          51.000                  
                 197600450.984                          44.000                  
                 197600450.984                          44.000    37947089.082  
                 200180056.850                          42.000                  
                 200180056.850                          42.000    38442475.615  
                 195594501.949                          45.000                  
                 195594501.949                          45.000    37561867.880  
                 189830812.947                          47.000                  
                 189830812.947                          47.000    36455011.744  
                 189057356.953                          46.000                  
                 189057356.953                          46.000    36306477.152  
                 187307092.248                          47.000                  
                 187307092.248                          47.000    35970357.668  
                 195354456.664                          45.000                  
                 195354456.664                          45.000    37515768.714  
 17 12 19  9 17 37.0000000  0 16G10G12G14G22G25G26G29G31G32C 1C 2C 3
                                C 6C 7C 9C10
  23179390.923   121808511.271                          42.000                  
  23179402.842    94915766.694                          38.000                  
  23753201.543   124823920.073                          43.000                  
  23753209.709    97265429.447                          34.000                  
  20557335.202   108029534.844                          45.000                  
  20557343.243    84178898.168                          47.000                  
  23417300.739   123058750.246                          41.000                  
  23417307.279    95889973.157                          35.000                  
  21208046.484   111449045.728                          47.000                  
  21208057.562    86843465.798                          45.000                  
  23319086.960   122542635.270                          42.000                  
  23319100.022    95487828.456                          37.000                  
  23976484.187   125997275.974                          41.000                  
  23976494.230    98179737.868                          32.000                  
  20686095.575   108706192.474                          50.000                  
  20686103.670    84706170.122                          49.000                  
  20524589.270   107857447.276                          50.000                  
  20524600.492    84044812.240                          51.000                  
                 197600408.798                          44.000                  
                 197600408.798                          44.000    37947080.719  
                 200180091.028                          42.000                  
                 200180091.028                          42.000    38442481.976  
                 195594476.445                          45.000                  
                 195594476.445                          45.000    37561862.823  
                 189831326.905                          47.000                  
                 189831326.905                          47.000    36455110.399  
                 189057025.319                          46.000                  
                 189057025.319                          46.000    36306413.485  
                 187307050.007                          47.000                  
                 187307050.007                          47.000    35970349.698  
                 195353758.162                          45.000                  
                 195353758.162                          45.000    37515634.535  
 17 12 19  9 17 38.0000000  0 16G10G12G14G22G25G26G29G31G32C 1C 2C 3
                                C 6C 7C 9C10
  23180077.040   121812118.547                          42.000                  
  23180089.352    94918577.554                          39.000                  
  23753850.063   124827328.893                          43.000                  
  23753858.390    97268085.659                          34.000                  
  20557176.024   108028697.205                          45.000                  
  20557183.833    84178245.458                          47.000                  
  23416937.962   123056845.428                          42.000                  
  23416944.949    95888488.913                          35.000                  
  21208364.052   111450714.810                          46.000                  
  21208375.166    86844766.377                          45.000                  
  23318404.631   122539049.371                          42.000                  
  23318417.640    95485034.252                          37.000                  
  23976010.229   125994785.074                          41.000                  
  23976020.289    98177796.927                          32.000                  
  20685919.726   108705268.061                          50.000                  
  20685927.785    84705449.793                          49.000                  
  20524707.063   107858066.554                          50.000                  
  20524718.320    84045294.789                          52.000                  
                 197600362.381                          44.000                  
                 197600362.381                          44.000    37947071.695  
                 200180120.963                          41.000                  
                 200180120.963                          41.000    38442487.480  
                 195594446.710                          44.000                  
                 195594446.710                          44.000    37561856.802  
                 189831836.774                          47.000                  
                 189831836.774                          47.000    36455208.446  
                 189056689.573                          46.000                  
                 189056689.573                          46.000    36306348.906  
                 187307003.657                          47.000                  
                 187307003.657                          47.000    35970340.781  
                 195353055.557                          44.000                  
                 195353055.557                          44.000    37515499.553  
 17 12 19  9 17 39.0000000  0 16G10G12G14G22G25G26G29G31G32C 1C 2C 3
                                C 6C 7C 9C10
  23180764.283   121815729.580                          42.000                  
  23180776.577    94921391.332                          38.000                  
  23754499.477   124830741.574                          43.000                  
  23754507.697    97270744.875                          34.000                  
  20557017.169   108027863.517                          45.000                  
  20557025.210    84177595.833                          47.000                  
  23416576.329   123054944.680                          42.000                  
  23416583.226    95887007.808                          36.000                  
  21208682.514   111452388.100                          46.000                  
  21208693.592    86846070.244                          45.000                  
  23317723.178   122535467.287                          42.000                  
  23317735.973    95482243.010                          37.000                  
  23975536.915   125992298.049                          41.000                  
  23975546.832    98175858.973                          32.000                  
  20685744.449   108704347.601                          50.000                  
  20685752.651    84704732.558                          49.000                  
  20524825.606   107858689.892                          50.000                  
  20524836.917    84045780.511                          52.000                  
                 197600319.544                          44.000                  
                 197600319.544                          44.000    37947063.475  
                 200180154.484                          42.000                  
                 200180154.484                          42.000    38442494.020  
                 195594420.543                          45.000                  
                 195594420.543                          45.000    37561851.923  
                 189832350.339                          47.000                  
                 189832350.339                          47.000    36455307.101  
                 189056357.497                          46.000                  
                 189056357.497                          46.000    36306285.257  
                 187306960.985                          47.000                  
                 187306960.985                          47.000    35970332.490  
                 195352356.627                          45.000                  
                 195352356.627                          45.000    37515365.624  
 17 12 19  9 17 40.0000000  0 16G10G12G14G22G25G26G29G31G32C 1C 2C 3
                                C 6C 7C 9C10
  23181451.436   121819338.784                          43.000                  
  23181463.462    94924203.712                          39.000                  
  23755148.766   124834152.545                          43.000                  
  23755156.932    97273402.774                          35.000                  
  20556858.277   108027028.173                          46.000                  
  20556866.247    84176944.907                          47.000                  
  23416214.231   123053042.430                          42.000                  
  23416221.146    95885525.512                          36.000                  
  21209000.511   111454059.976                          46.000                  
  21209011.733    86847372.995                          45.000                  
  23317041.046   122531883.416                          42.000                  
  23317053.948    95479450.370                          37.000                  
  23975063.368   125989809.264                          42.000                  
  23975073.053    98173919.646                          32.000                  
  20685569.225   108703425.480                          50.000                  
  20685577.141    84704014.006                          49.000                  
  20524943.988   107859311.687                          50.000                  
  20524955.245    84046265.011                          51.000                  
                 197600274.718                          44.000                  
                 197600274.718                          44.000    37947055.095  
                 200180186.007                          41.000                  
                 200180186.007                          41.000    38442500.042  
                 195594392.392                          44.000                  
                 195594392.392                          44.000    37561846.866  
                 189832862.013                          47.000                  
                 189832862.013                          47.000    36455405.488  
                 189056023.528                          46.000                  
                 189056023.528                          46.000    36306221.179  
                 187306916.433                          47.000                  
                 187306916.433                          47.000    35970323.984  
                 195351655.796                          44.000                  
                 195351655.796                          44.000    37515230.963  
 17 12 19  9 17 41.0000000  0 16G10G12G14G22G25G26G29G31G32C 1C 2C 3
                                C 6C 7C 9C10
  23182137.857   121822946.553                          42.000                  
  23182149.900    94927014.966                          39.000                  
  23755797.376   124837562.189                          43.000                  
  23755805.649    97276059.667                          35.000                  
  20556698.939   108026191.603                          45.000                  
  20556707.105    84176293.050                          47.000                  
  23415851.829   123051139.088                          41.000                  
  23415858.905    95884042.421                          36.000                  
  21209318.365   111455730.860                          46.000                  
  21209329.712    86848674.989                          46.000                  
  23316358.432   122528298.165                          42.000                  
  23316371.762    95476656.696                          37.000                  
  23974589.320   125987319.147                          41.000                  
  23974599.130    98171979.316                          32.000                  
  20685393.233   108702502.115                          50.000                  
  20685401.524    84703294.519                          49.000                  
  20525062.084   107859932.338                          50.000                  
  20525073.413    84046748.653                          52.000                  
                 197600228.295                          44.000                  
                 197600228.295                          44.000    37947045.928  
                 200180215.928                          42.000                  
                 200180215.928                          42.000    38442506.099  
                 195594362.649                          44.000                  
                 195594362.649                          44.000    37561841.023  
                 189833372.240                          47.000                  
                 189833372.240                          47.000    36455503.321  
                 189055688.061                          46.000                  
                 189055688.061                          46.000    36306156.922  
                 187306870.408                          47.000                  
                 187306870.408                          47.000    35970315.157  
                 195350953.459                          45.000                  
                 195350953.459                          45.000    37515096.088  
 17 12 19  9 17 42.0000000  0 16G10G12G14G22G25G26G29G31G32C 1C 2C 3
                                C 6C 7C 9C10
  23182825.635   121826560.432                          42.000                  
  23182837.590    94929830.978                          38.000                  
  23756447.218   124840978.025                          43.000                  
  23756455.635    97278721.353                          34.000                  
  20556540.924   108025361.292                          45.000                  
  20556549.018    84175646.043                          46.000                  
  23415490.786   123049242.116                          42.000                  
  23415497.755    95882564.227                          35.000                  
  21209637.613   111457408.264                          47.000                  
  21209648.924    86849982.053                          45.000                  
  23315677.747   122524719.063                          42.000                  
  23315690.559    95473867.791                          36.000                  
  23974116.810   125984835.207                          42.000                  
  23974126.280    98170043.787                          31.000                  
  20685218.778   108701585.009                          50.000                  
  20685226.962    84702579.887                          48.000                  
  20525181.485   107860559.362                          50.000                  
  20525192.653    84047237.234                          51.000                  
                 197600187.732                          44.000                  
                 197600187.732                          44.000    37947038.351  
                 200180251.734                          42.000                  
                 200180251.734                          42.000    38442513.068  
                 195594338.773                          44.000                  
                 195594338.773                          44.000    37561836.270  
                 189833888.457                          47.000                  
                 189833888.457                          47.000    36455602.440  
                 189055358.535                          46.000                  
                 189055358.535                          46.000    36306093.522  
                 187306830.325                          47.000                  
                 187306830.325                          47.000    35970307.348  
                 195350257.059                          44.000                  
                 195350257.059                          44.000    37514961.999  
 17 12 19  9 17 43.0000000  0 16G10G12G14G22G25G26G29G31G32C 1C 2C 3
                                C 6C 7C 9C10
  23183512.056   121830167.714                          43.000                  
  23183523.993    94932641.838                          38.000                  
  23757096.114   124844387.384                          43.000                  
  23757104.477    97281378.001                          34.000                  
  20556381.532   108024524.584                          45.000                  
  20556389.823    84174994.065                          46.000                  
  23415128.902   123047338.901                          42.000                  
  23415135.567    95881081.234                          36.000                  
  21209955.789   111459079.526                          46.000                  
  21209966.975    86851284.337                          45.000                  
  23314995.383   122521133.407                          42.000                  
  23315008.177    95471073.756                          36.000                  
  23973643.245   125982344.817                          42.000                  
  23973652.376    98168103.203                          31.000                  
  20685043.090   108700661.500                          50.000                  
  20685051.220    84701860.269                          48.000                  
  20525299.564   107861180.089                          50.000                  
  20525310.785    84047720.915                          51.000                  
                 197600140.483                          44.000                  
                 197600140.483                          44.000    37947029.631  
                 200180280.847                          41.000                  
                 200180280.847                          41.000    38442518.822  
                 195594308.195                          44.000                  
                 195594308.195                          44.000    37561830.463  
                 189834398.096                          47.000                  
                 189834398.096                          47.000    36455700.345  
                 189055022.414                          46.000                  
                 189055022.414                          46.000    36306029.122  
                 187306783.670                          46.000                  
                 187306783.670                          46.000    35970298.325  
                 195349554.074                          44.000                  
                 195349554.074                          44.000    37514827.391  
 17 12 19  9 17 44.0000000  0 16G10G12G14G22G25G26G29G31G32C 1C 2C 3
                                C 6C 7C 9C10
  23184198.906   121833779.342                          43.000                  
  23184211.182    94935456.087                          38.000                  
  23757745.867   124847801.184                          43.000                  
  23757754.069    97284038.084                          34.000                  
  20556223.320   108023692.404                          46.000                  
  20556231.450    84174345.622                          47.000                  
  23414767.626   123045440.342                          42.000                  
  23414774.256    95879601.828                          35.000                  
  21210274.769   111460755.542                          47.000                  
  21210285.919    86852590.335                          45.000                  
  23314313.751   122517552.165                          42.000                  
  23314326.688    95468283.198                          37.000                  
  23973169.841   125979858.855                          42.000                  
  23973179.526    98166166.126                          32.000                  
  20684868.223   108699742.498                          50.000                  
  20684876.389    84701144.173                          49.000                  
  20525418.553   107861805.437                          50.000                  
  20525429.775    84048208.209                          51.000                  
                 197600097.350                          44.000                  
                 197600097.350                          44.000    37947021.322  
                 200180314.065                          41.000                  
                 200180314.065                          41.000    38442525.219  
                 195594281.746                          44.000                  
                 195594281.746                          44.000    37561825.406  
                 189834912.007                          47.000                  
                 189834912.007                          47.000    36455798.946  
                 189054690.538                          46.000                  
                 189054690.538                          46.000    36305965.223  
                 187306741.239                          47.000                  
                 187306741.239                          47.000    35970290.141  
                 195348855.333                          44.000                  
                 195348855.333                          44.000    37514692.891  
 17 12 19  9 17 45.0000000  0 16G10G12G14G22G25G26G29G31G32C 1C 2C 3
                                C 6C 7C 9C10
  23184885.701   121837389.433                          42.000                  
  23184898.067    94938269.142                          38.000                  
  23758394.835   124851213.557                          43.000                  
  23758403.430    97286697.085                          35.000                  
  20556064.750   108022858.886                          46.000                  
  20556072.862    84173696.116                          47.000                  
  23414406.172   123043540.583                          42.000                  
  23414412.819    95878121.480                          36.000                  
  21210593.409   111462430.461                          46.000                  
  21210604.577    86853895.460                          45.000                  
  23313632.030   122513969.439                          42.000                  
  23313644.770    95465491.449                          37.000                  
  23972696.526   125977371.446                          42.000                  
  23972706.336    98164227.867                          32.000                  
  20684693.160   108698822.149                          50.000                  
  20684701.202    84700427.009                          49.000                  
  20525537.382   107862429.556                          50.000                  
  20525548.515    84048694.526                          51.000                  
                 197600052.529                          44.000                  
                 197600052.529                          44.000    37947012.781  
                 200180345.620                          42.000                  
                 200180345.620                          42.000    38442531.295  
                 195594253.590                          45.000                  
                 195594253.590                          45.000    37561820.009  
                 189835424.345                          47.000                  
                 189835424.345                          47.000    36455897.440  
                 189054357.037                          46.000                  
                 189054357.037                          46.000    36305901.055  
                 187306697.224                          47.000                  
                 187306697.224                          47.000    35970281.706  
                 195348154.973                          45.000                  
                 195348154.973                          45.000    37514558.659  
 17 12 19  9 17 46.0000000  0 16G10G12G14G22G25G26G29G31G32C 1C 2C 3
                                C 6C 7C 9C10
  23185572.944   121841000.841                          42.000                  
  23185585.292    94941083.240                          38.000                  
  23759044.266   124854627.330                          43.000                  
  23759053.076    97289357.170                          34.000                  
  20555906.555   108022026.846                          46.000                  
  20555914.543    84173047.785                          47.000                  
  23414045.003   123041642.432                          42.000                  
  23414051.650    95876642.420                          35.000                  
  21210912.407   111464107.096                          46.000                  
  21210923.647    86855201.931                          45.000                  
  23312950.452   122510388.068                          42.000                  
  23312963.389    95462700.771                          37.000                  
  23972223.265   125974885.426                          42.000                  
  23972233.129    98162290.724                          32.000                  
  20684518.223   108697903.280                          50.000                  
  20684526.353    84699711.018                          49.000                  
  20525656.372   107863055.245                          50.000                  
  20525667.594    84049182.083                          51.000                  
                 197600008.828                          44.000                  
                 197600008.828                          44.000    37947004.168  
                 200180378.254                          41.000                  
                 200180378.254                          41.000    38442537.174  
                 195594226.568                          44.000                  
                 195594226.568                          44.000    37561814.327  
                 189835937.930                          47.000                  
                 189835937.930                          47.000    36455995.880  
                 189054024.754                          46.000                  
                 189054024.754                          46.000    36305837.477  
                 187306654.434                          47.000                  
                 187306654.434                          47.000    35970273.397  
                 195347455.831                          44.000                  
                 195347455.831                          44.000    37514424.248  
 17 12 19  9 17 47.0000000  0 16G10G12G14G22G25G26G29G31G32C 1C 2C 3
                                C 6C 7C 9C10
  23186260.437   121844613.376                          42.000                  
  23186272.766    94943898.184                          38.000                  
  23759694.324   124858042.362                          43.000                  
  23759702.829    97292018.229                          34.000                  
  20555748.361   108021196.116                          46.000                  
  20555756.456    84172400.456                          47.000                  
  23413683.870   123039745.737                          42.000                  
  23413690.893    95875164.466                          35.000                  
  21211231.744   111465785.304                          46.000                  
  21211242.930    86856509.619                          45.000                  
  23312269.606   122506807.844                          42.000                  
  23312282.043    95459910.981                          37.000                  
  23971750.558   125972400.640                          42.000                  
  23971760.350    98160354.532                          31.000                  
  20684343.607   108696985.698                          50.000                  
  20684351.719    84698996.006                          49.000                  
  20525775.773   107863682.351                          50.000                  
  20525786.905    84049670.730                          51.000                  
                 197599966.058                          44.000                  
                 197599966.058                          44.000    37946996.055  
                 200180411.828                          42.000                  
                 200180411.828                          42.000    38442543.767  
                 195594200.480                          44.000                  
                 195594200.480                          44.000    37561809.806  
                 189836452.562                          47.000                  
                 189836452.562                          47.000    36456094.821  
                 189053693.498                          46.000                  
                 189053693.498                          46.000    36305773.703  
                 187306612.681                          46.000                  
                 187306612.681                          46.000    35970265.428  
                 195346757.725                          45.000                  
                 195346757.725                          45.000    37514290.267  
 17 12 19  9 17 48.0000000  0 16G10G12G14G22G25G26G29G31G32C 1C 2C 3
                                C 6C 7C 9C10
  23186947.554   121848223.590                          42.000                  
  23186959.795    94946711.362                          39.000                  
  23760343.630   124861455.158                          43.000                  
  23760352.243    97294677.555                          34.000                  
  20555589.845   108020363.257                          45.000                  
  20555598.047    84171751.482                          47.000                  
  23413322.344   123037847.049                          42.000                  
  23413329.688    95873684.978                          36.000                  
  21211550.813   111467461.631                          46.000                  
  21211561.946    86857815.866                          45.000                  
  23311588.064   122503225.390                          42.000                  
  23311600.483    95457119.482                          37.000                  
  23971276.939   125969913.616                          41.000                  
  23971287.053    98158416.573                          32.000                  
  20684168.508   108696065.986                          50.000                  
  20684176.728    84698279.366                          49.000                  
  20525894.799   107864307.439                          50.000                  
  20525905.860    84050157.823                          52.000                  
                 197599920.830                          44.000                  
                 197599920.830                          44.000    37946987.335  
                 200180442.964                          41.000                  
                 200180442.964                          41.000    38442549.271  
                 195594171.934                          44.000                  
                 195594171.934                          44.000    37561804.213  
                 189836964.879                          47.000                  
                 189836964.879                          47.000    36456193.226  
                 189053359.910                          46.000                  
                 189053359.910                          46.000    36305709.428  
                 187306568.587                          47.000                  
                 187306568.587                          47.000    35970257.011  
                 195346057.283                          44.000                  
                 195346057.283                          44.000    37514155.766  
 17 12 19  9 17 49.0000000  0 16G10G12G14G22G25G26G29G31G32C 1C 2C 3
                                C 6C 7C 9C10
  23187635.476   121851838.014                          43.000                  
  23187647.716    94949527.774                          38.000                  
  23760993.848   124864872.276                          43.000                  
  23761002.461    97297340.240                          34.000                  
  20555432.329   108019534.798                          45.000                  
  20555440.353    84171105.918                          47.000                  
  23412962.051   123035952.883                          42.000                  
  23412969.198    95872208.991                          36.000                  
  21211870.758   111469142.580                          46.000                  
  21211881.730    86859125.685                          45.000                  
  23310906.914   122499647.173                          42.000                  
  23310919.530    95454331.247                          37.000                  
  23970804.804   125967430.879                          41.000                  
  23970814.721    98156481.961                          32.000                  
  20683994.267   108695150.661                          50.000                  
  20684002.487    84697566.114                          49.000                  
  20526014.539   107864937.010                          50.000                  
  20526025.653    84050648.386                          52.000                  
                 197599879.598                          44.000                  
                 197599879.598                          44.000    37946979.241  
                 200180478.075                          41.000                  
                 200180478.075                          41.000    38442556.204  
                 195594147.378                          45.000                  
                 195594147.378                          45.000    37561799.460  
                 189837481.302                          47.000                  
                 189837481.302                          47.000    36456292.560  
                 189053030.378                          46.000                  
                 189053030.378                          46.000    36305646.082  
                 187306528.591                          47.000                  
                 187306528.591                          47.000    35970249.292  
                 195345360.933                          45.000                  
                 195345360.933                          45.000    37514021.999  
 17 12 19  9 17 50.0000000  0 16G10G12G14G22G25G26G29G31G32C 1C 2C 3
                                C 6C 7C 9C10
  23188322.254   121855445.596                          42.000                  
  23188334.226    94952338.886                          38.000                  
  23761643.030   124868282.654                          43.000                  
  23761651.339    97299997.682                          34.000                  
  20555273.635   108018699.672                          45.000                  
  20555281.443    84170455.175                          47.000                  
  23412600.578   123034052.196                          42.000                  
  23412607.476    95870727.937                          36.000                  
  21212189.238   111470817.138                          46.000                  
  21212200.406    86860430.531                          45.000                  
  23310224.657   122496062.170                          42.000                  
  23310237.398    95451537.738                          37.000                  
  23970331.132   125964941.402                          41.000                  
  23970340.960    98154542.161                          33.000                  
  20683819.008   108694228.669                          50.000                  
  20683827.103    84696847.683                          49.000                  
  20526133.171   107865560.032                          50.000                  
  20526144.232    84051133.860                          52.000                  
                 197599831.434                          44.000                  
                 197599831.434                          44.000    37946970.288  
                 200180506.260                          42.000                  
                 200180506.260                          42.000    38442561.600  
                 195594115.872                          44.000                  
                 195594115.872                          44.000    37561793.492  
                 189837990.912                          47.000                  
                 189837990.912                          47.000    36456390.446  
                 189052693.995                          46.000                  
                 189052693.995                          46.000    36305581.593  
                 187306481.738                          47.000                  
                 187306481.738                          47.000    35970240.286  
                 195344657.700                          45.000                  
                 195344657.700                          45.000    37513886.873  
